id	title	lat	lon	address	type	open	comment	contact	bcz	digital	icontype	deactivated	deactreason	entrytype	homepage	Source
2	Bad Münstereifel (Innogy)	50.55574078	6.76511585712	Werther Platz 45, 53902 Bad Münstereifel	Innogy Bücherschrank (BOKX)	24 / 7	gestiftet von der Innogy SE					0		bookcase	bit.ly/innogycases	openbookcase.org
3	Bad Sobernheim (Innogy)	49.7856525504	7.65182197094	Saarstraße 26-28 (Auf dem Platz vor der Apotheke)	Innogy Bücherschrank (BOKX)	24 / 7	gestiftet von der Innogy SE		0	0		0		bookcase	bit.ly/innogycases	openbookcase.org
4	Boppard (Innogy)	50.231999	7.588459	Stadtplatz / Karmeliterstr. 2, 56154 Boppard	Innogy Bücherschrank (BOKX)	24 / 7	gestiftet von der Innogy SE					0		bookcase	bit.ly/innogycases	openbookcase.org
5	Inden (Innogy)	50.846232	6.358291	Rathausstr. 1, 52459 Inden	Innogy Bücherschrank (BOKX)	24 / 7	gestiftet von der Innogy SE					0		bookcase	bit.ly/innogycases	openbookcase.org
6	Merzenich (Innogy)	50.8284628806	6.52469873428	Lindenstraße Ecke Bergstraße, 52399 Merzenich	Innogy Bücherschrank (BOKX)	24 / 7	gestiftet von der Innogy SE					0		bookcase	bit.ly/innogycases	openbookcase.org
7	Neunkirchen-Seelscheid (Innogy)	50.8713302096	7.32454419136	Zeithstr. 140, 53819 Neunkirchen-Seelscheid	Innogy Bücherschrank (BOKX)	24 / 7	gestiftet von der Innogy SE					0		bookcase	bit.ly/innogycases	openbookcase.org
9	Verbandsgemeinde Wöllstein - Wonsheim (Innogy)	49.813398	7.961212		Innogy Bücherschrank (BOKX)	24 / 7	gestiftet von der Innogy SE					0		bookcase		openbookcase.org
10	Weilerswist (Innogy)	50.752966	6.841539	Bonner Str. 29, 53919 Weilerswist	Innogy Bücherschrank (BOKX)	24 / 7	gestiftet von der Innogy SE					0		bookcase	bit.ly/innogycases	openbookcase.org
11	Aalen / Droste-Hülshoff-Weg (Pelzwasen)	48.835531	10.114725		Zweitüriger Holzschrank	24 / 7	auch Kinder- und Jugendbücher, die Bücherkiste wurde von Anwohnern aufgestellt und von der Fa. Vitus König aus Aalen kostenlos gebaut		0	0		0		bookcase		openbookcase.org
12	Aalen / Kino am Kocher	48.842595	10.092149		Bücherregal	Mo bis Sa 18.30 bis 24 Uhr, So 19.30 bis 24 Uhr	barrierefrei zugänglich;  / Schleifbrückenstr. 15		0	0		0		bookcase		openbookcase.org
13	Aalen / Storchenplatz	48.83932	10.091377		Bücherschrank	24 / 7						0		bookcase		openbookcase.org
14	Aldenhoven (Innogy)	50.895129	6.28515	Alte Turmstraße, 52457 Aldenhoven	Innogy Bücherschrank (BOKX)	24 / 7	gestiftet von der Innogy SE					0		bookcase	bit.ly/innogycases	openbookcase.org
15	Altenahr	50.516058	6.988632		Holzschrank	24 / 7						0		bookcase		openbookcase.org
16	Andernach (Innogy)	50.438626	7.404172	Am Stadtgraben, 56626 Andernach	Innogy Bücherschrank (BOKX)	24 / 7	gestiftet von der Innogy SE;  Am Stadtgraben					0		bookcase	bit.ly/innogycases	openbookcase.org
17	Annweiler	49.216902	7.996478	Queichtalstrasse, Queichhambach	Elektroverteilerkasten	24 / 7	Ortseingang Ost	Helmut Seebach 0175-2901625				0	Um Bücher ein zweites Leben zu geben	bookcase	bachstelz-verlag.de/	openbookcase.org
18	Aschaffenburg	49.980286	9.141212		Bücherschrank	24 / 7	Regionaler Omnibusbahnhof Haltepunkt 5		1			0		bookcase		openbookcase.org
19	BÜCHERREGAL Augsburg Hofgarten	48.372529	10.893495	Fronhof, 86152 Augsburg	Vitrine	April bis Oktober täglich 8-21 Uhr; im Winter geschlossen	gefördert durch die Augsburger Müller-Spengler-Stiftung; barrierefrei		0	0		0		bookcase		openbookcase.org
20	Bad Bentheim (Innogy)	52.30221	7.150275	Gildehauser Straße 13, 48455 Bad Bentheim	Innogy Bücherschrank (BOKX)	24 / 7	gestiftet von der Innogy SE					0		bookcase	bit.ly/innogycases	openbookcase.org
21	Bad Essen (Innogy)	52.318133	8.354597	Lindenstraße, 49152 Bad Essen	Innogy Bücherschrank (BOKX)	24 / 7	gestiftet von der Innogy SE					0		bookcase	bit.ly/innogycases	openbookcase.org
23	Bamberg	49.907212	10.904303		Austauschbibliothek		Universitätsteil Feldkirchenstr. 21, Musiktrakt gegenüber Zimmer 501, barrierefreier Zugang					0		bookcase		openbookcase.org
24	Bammental	49.35578	8.776294			24 / 7	gegenüber des Rathauses					0		bookcase		openbookcase.org
25	Bayreuth / Luitpoldplatz	49.946342	11.576706		Bücherschrank	24 / 7	barrierefreier Zugang					0		bookcase		openbookcase.org
26	Bedburg Hau (Innogy)	51.763846	6.185983	Klosterplatz 30, 47551 Bedburg Hau	Innogy Bücherschrank (BOKX)	24 / 7	gestiftet von der Innogy SE		0	0		0		bookcase	bit.ly/innogycases	openbookcase.org
27	Bensheim / Café Klostergarten	49.682071	8.622474		Roter Bücherschrank		Klostergasse 5a; Aufgestellt vom Förderverein für Demokratie und soziales Engagement (DSE) in Kooperation mit dem Mehrgenerationenhaus und mit handwerklicher Unterstützung der Klinik Schloss Falkenhof					0		bookcase		openbookcase.org
28	Bergheim / Fußgängerzone (Innogy)	50.9538412461	6.63992643356	Beißelstraße 1, 50126 Bergheim	Innogy Bücherschrank (BOKX)	24 / 7	gestiftet von der Innogy SE					0		bookcase	bit.ly/innogycases	openbookcase.org
29	Bergisch Gladbach / Marktplatz	50.9917414722	7.13102281094		BOKX 02	24 / 7	Gefördert durch das Bestattungshaus Pütz-RothEntwurf: Hans-Jürgen Greve; Ausstattung der Kunstvitrine durch ortsansässige Künstler		0	0		0		bookcase		openbookcase.org
30	Berlin-Charlottenburg / BücherboXX Mierendorffplatz	52.525219	13.304		Telefonzelle	24 / 7	BücherboXX II. Ausbildungsergebnis mit Auszubildenden der AEG-Signung und OSZ-Thiem sowie Sägewerk Berlin-Grunewald	Kiezbüro c/ DorfwerkStadt e.V., Tel. 030 / 344 58 74, Mierendorffstr. 6, team@dorfwerkstadt.de	1	0		0		bookcase		openbookcase.org
31	BücherboXX Gleis 17, Berlin-Grunewald	52.487965	13.263155		Telefonzelle	24 / 7	BücherboXX Prototyp; Ergebnis eines LKS-Projektes in Berlin Steglitz-Zehlendorf; geht auf Wanderschaft durch die Bezirke, steht augenblicklich als BücherboXX Gleis17 am Bahnhof Grunewald Richtung Auerbacher Straße		1	0		0		bookcase		openbookcase.org
32	Bücherwald / Berlin-Prenzlauer Berg	52.53819	13.41954		Bücherbaum	24 / 7	interdisziplinäre Zusammenarbeit von Auszubildenden der an der Wertschöpfungskette Wald- Holz- Buch beteiligten Berufsgruppen	Sredzkistr. 48 / Kollwitzstr.	1	0		0		bookcase		openbookcase.org
33	Berlin-Spandau / Bürgeramt im Rathaus	52.534518	13.200175		britische Telefonzelle		Im Wartebereich des Bürgeramtes		1	0		0		bookcase		openbookcase.org
34	Berlin-Weißensee / BücherboXX marcel-breuer-schule	52.558733	13.447814		Telefonzelle	Mo-Fr zu den Öffnungszeiten der Berufsschule	BücherboXX III. Ausbildungsergebnis mit Auszubildenden der marcel-breuer-schule; auf dem Schulhof		1	0		0		bookcase		openbookcase.org
35	Berlin-Wilmersdorf / Haus der Berliner Festspiele	52.498962	13.32856		Büchertausch-Schrank	24 / 7	Bücher zum Tauschen - bring eins, nimm eins		0	0		0		bookcase		openbookcase.org
36	BücherboXX Berlin-Zehlendorf / MGH	52.413302	13.266535		Telefonzelle	24 / 7	BücherboXX IV. Ergebnis der Ausbildungskooperative / vor dem Mittelhof Phoenix Mehrgenerationenhaus		1	0		0		bookcase		openbookcase.org
37	Bissendorf (Innogy)	52.235159	8.16936	Am Thie 9, 49143 Bissendorf	Innogy Bücherschrank (BOKX)	24 / 7	gestiftet von der Innogy SE					0		bookcase	bit.ly/innogycases	openbookcase.org
38	Bissendorf-Schledehausen (Innogy)	52.280486	8.239013	Am Bredberg 2, 49143 Bissendorf	Innogy Bücherschrank (BOKX)	24 / 7	gestiftet von der Innogy SE					0		bookcase	bit.ly/innogycases	openbookcase.org
39	Blankenheim-Freilingen	50.410824	6.731886		Holzhaus	9-19 Uhr	barrierefreier Zugang					0		bookcase		openbookcase.org
40	Bocholt	51.838496	6.617966		weiße Bücherregale	während der Öffnungszeiten	Osterstraße (im Durchgang neben der Apotheke)					0		bookcase		openbookcase.org
41	Bohmte (Innogy)	52.361174	8.307742	Bremer Straße 1, 49163 Bohmte	Innogy Bücherschrank (BOKX)	24 / 7	gestiftet von der Innogy SE; direkt am Bahnhof					0		bookcase	bit.ly/innogycases	openbookcase.org
42	Bonn-Beuel	50.736192	7.114541		BOKX 01	24 / 7	Gefördert durch die Bürgerstiftung BonnEntwurf: Trixy RoyeckEntwicklung: Hans-Jürgen Greve					0		bookcase	www.buergerstiftung-bonn.de/projekte/offene-buecherschraenke/	openbookcase.org
43	Bonn-Duisdorf	50.714985	7.048539		BOKX 01	24 / 7	Gefördert durch die Bürgerstiftung BonnEntwurf: Trixy RoyeckEntwicklung: Hans-Jürgen Greve; Fußgängerzone					0		bookcase	www.buergerstiftung-bonn.de/projekte/offene-buecherschraenke/	openbookcase.org
44	Bonn-Endenich	50.727422	7.074962		BOKX 01	24 / 7	Gefördert durch die Bürgerstiftung BonnEntwurf: Trixy RoyeckEntwicklung: Hans-Jürgen Greve; Frongasse					0		bookcase	www.buergerstiftung-bonn.de/projekte/offene-buecherschraenke/	openbookcase.org
45	Bonn-Nordstadt	50.7394766588	7.08958804607		BOKX 01	24 / 7	Gefördert durch die Bürgerstiftung BonnEntwurf: Trixy RoyeckEntwicklung: Hans-Jürgen Greve		0	0		0		bookcase	www.buergerstiftung-bonn.de/projekte/offene-buecherschraenke/	openbookcase.org
46	Bonn-Poppelsdorf / Poppelsdorfer Allee	50.730114	7.098281		Bücherschrank	24 / 7	Gefördert durch die Bürgerstiftung BonnEntwurf: Trixy Royeck					0		bookcase	www.buergerstiftung-bonn.de/projekte/offene-buecherschraenke/	openbookcase.org
47	Bonn-Ramersdorf / Bonner Bogen	50.7167459598	7.15358018875		BOKX 01	24 / 7	Gefördert durch die Bürgerstiftung BonnEntwurf: Trixy RoyeckEntwicklung: Hans-Jürgen Greve					0		bookcase	www.buergerstiftung-bonn.de/projekte/offene-buecherschraenke/	openbookcase.org
48	Bonn-Venusberg / Universitätsklinikum	50.700052	7.102878		BOKX Indoor	24 / 7	Gefördert durch die Bürgerstiftung BonnEntwurf: Hans-Jürgen Greve; HNO-Neubau					0		bookcase	www.buergerstiftung-bonn.de/projekte/offene-buecherschraenke/	openbookcase.org
49	Bonn-Zentrum / Alter Zoll	50.73342	7.106608		britische Telefonzelle	24 / 7	Geschenk der Partnerstadt Oxford/Gefördert durch den Oxford-Club Bonn					0		bookcase	www.buergerstiftung-bonn.de/projekte/offene-buecherschraenke/	openbookcase.org
50	Bonsweiher	49.614561	8.71503		Bücherregal	24 / 7	zwei weitere sind im Dorfgemeinschaftshaus, überwiegend abends geöffnet. Aufgestellt vom Kultur- und Museumsverein Bonsweiher e.V., mit handwerklicher Unterstützung des Gemeindewerks Mörlenbach					0		bookcase		openbookcase.org
51	Borgholzhausen (Innogy)	52.101998	8.29946	Am Uphof 4, 33829 Borgholzhausen	Innogy Bücherschrank (BOKX)	24 / 7	gestiftet von der Innogy SE, wird von der Stadt betreut					0		bookcase	bit.ly/innogycases	openbookcase.org
52	Brakel / Am Thy (Innogy)	51.717388	9.18178	Am Thy, 33034 Brakel	Innogy Bücherschrank (BOKX)	24 / 7	gestiftet von der Innogy SE		0	0		0		bookcase	bit.ly/innogycases	openbookcase.org
53	Bramsche – Lappenstuhl (Innogy)	52.418152	8.059885	Ernst-Bettermann-Platz, 49565 Bramsche	Innogy Bücherschrank (BOKX)	24 / 7	gestiftet von der Innogy SE					0		bookcase	bit.ly/innogycases	openbookcase.org
54	Bramsche-Engter (Innogy)	52.388571	8.06201	Im alten Dorf 21, Bramsche / Engter	Innogy Bücherschrank (BOKX)	24 / 7	gestiftet von der Innogy SE / nähe Bushaltestelle					0		bookcase	bit.ly/innogycases	openbookcase.org
55	Braunschweig / IKEA	52.30925	10.50483		Regal	zu den IKEA Öffnungszeiten	im IKEA		0	0		0		bookcase		openbookcase.org
56	Bremen / Delmemarkt	53.067989	8.791008		Stahlschrank	24 / 7	Pappelstraße; auf dem Delmemarkt		0	0		0		bookcase		openbookcase.org
57	Bruchsal	49.1246650914	8.59701633453		Mehrere Plexiglaswürfel	24 / 7	Babette-Ihle-Platz, an der Stadtkirche		0	0		0		bookcase		openbookcase.org
58	Brühl / Kartäuserhof	50.8288864292	6.90467119217		brit. Telefonzelle	Mo-Do. 07:00 - 19:45; Fr. 07:00 - 18:30, Sa./So. 08:00 - 18:30	Stadtbücherei Brühl; Marktnähe		0	0		0		bookcase		openbookcase.org
59	Brünen (Hamminkeln)	51.725279	6.682543		grüne Telefonzelle	24 / 7	direkt an der Kirche, Projekt der Landfrauen					0		bookcase		openbookcase.org
60	Celle	52.6212787151	10.0692969561		Holzschrank	24 / 7	Bahnhofstraße am Fußgängerüberweg		0	0		0		bookcase		openbookcase.org
61	Celle / Schloßplatz	52.6226139151	10.0796073675		Bücherschrank	24 / 7			0	0		0		bookcase		openbookcase.org
62	Chemnitz - Das Tietz	50.830983785	12.923553586		Bücherschrank	?	Im Kulturhaus &#34;Das Tietz&#34;, vom Haupteingang rechts am Versteinerten Wald vorbei hinten an der Wand neben dem Ausgang zur Wiesenstraße		0	0		0		bookcase		openbookcase.org
63	Crailsheim / Schweinemarktplatz	49.1363	10.072342		Bücherschrank	24 / 7	Hausseite einer überdachten Tiefgaragentreppe		0	0		0		bookcase		openbookcase.org
64	Cuxhaven-Duhnen / Robert-Dohrmann-Platz	53.88505	8.643667		Bücherschrank	24 / 7	Urlauberseelsorge; Kapelle am Robert-Dohrmann-Platz					0		bookcase		openbookcase.org
65	Damme (Innogy)	52.523529	8.201374	Große Straße / Steinfelder Straße, 49401 Damme	Innogy Bücherschrank (BOKX)	24 / 7	gestiftet von der Innogy SE					0		bookcase	bit.ly/innogycases	openbookcase.org
66	Darmstadt / Prinz-Georg-Garten	49.879011	8.655369	Schlossgartenstraße, 64289 Darmstadt	Lesezimmer mit Holzbücherregalen	März bis Oktober täglich 7-19 Uhr; November bis Februar täglich 8-17 Uhr	im Pretlack&#39;schen Gartenhaus; Lesezimmer mit Stühlen und Tischen		0	0		0		bookcase	www.darmstadt.de/darmstadt-erleben/sehenswuerdigkeiten/parks-und-gaerten/prinz-georg-garten/	openbookcase.org
67	Darmstadt-Bessungen / Bessunger Platz	49.858136	8.650957	Bessunger Platz (Bessunger Straße 55)	Holzregal mit Plexiglastüren	immer :-) Ist ja schließlich eine offene Bibliothek	Die Bibliothek steht auf dem Bessunger Platz hinter der Kirche. Der Bücherbestand liegt bei etwa 300-400 Büchern. Das Angebot ist bunt gemischt, es gibt nicht nur alte Schinken, sondern auch moderne Literatur, entsprechend der Bevölkerung in Bessungen. Mitunter finden sich sogar noch eingeschweißte Bücher. Etwa 1-2% der Bücher sind fremdsprachliche, meist auf Englisch, Französisch, Spanisch und Russisch. Die Bibliothek verfügt über einen öffentlichen elektronischen Speicher (&#34;Deaddrop&#34;, http://deaddrops.com/dead-drops/db-map/)	Michael Ibsen, 0174-2176527	0	1		0		bookcase		openbookcase.org
68	Darmstadt-Johannesviertel	49.87819	8.648616	Viktoriastraße 34, Darmstadt	Holzregal mit Plexiglastüren	24 / 7	Die Offene Bibliothek steht in der Viktoriastraße vor dem Kinderhaus gegenüber der Goetheschule. Die Bibliothek wurde nach einer Anregung aus Mainz Ende 1996 aufgestellt und ist somit die älteste Offene Bibliothek in Darmstadt.  Der Bücherbestand beträgt etwa 400-500 Bücher. 	Michael Ibsen, 0174-2176527	0	1		0		bookcase		openbookcase.org
69	Denzlingen	48.066967	7.883275		Telefonzelle	24 / 7	Hauptstr. 124					0		bookcase		openbookcase.org
70	Dissen am Teutoburger Wald (Innogy)	52.11457	8.204624	Am Karlsplatz 1, 49201 Dissen am Teutoburger Wald	Innogy Bücherschrank (BOKX)	24 / 7	gestiftet von der Innogy SE; dies ist der 50. aufgestellte Bücherschrank durch Innogy					0		bookcase	bit.ly/innogycases	openbookcase.org
71	Dortmund-Aplerbeck	51.491333	7.554956		Bücherschrank	24 / 7	Aplerbecker Marktplatz					0		bookcase		openbookcase.org
72	Dortmund-Körne	51.516018	7.505646		Bücherschrank	24 / 7	Am Körner Park		0	0		0		bookcase		openbookcase.org
73	Dortmund-Unionviertel	51.51085	7.44311		Bücherschrank	24 / 7	Nähe Heinrichtstr. 38		0	0		0		bookcase		openbookcase.org
74	Dreieich-Götzenhain / Dorfbrunnenplatz	50.000093	8.731947		Bücherregal	24 / 7	betreut von der Stadtteil-AG Götzenhain					0		bookcase		openbookcase.org
75	Drensteinfurt / Marktplatz	51.797046	7.742244		Bücherschrank	24 / 7	In der Bushaltestelle auf dem Marktplatz; das Regal wurde von der Stadt Drensteinfurt aufgebaut und wird von der Initiatorin Jana Philipp betreut.					0		bookcase		openbookcase.org
77	Duisburg / Königsgalerie	51.433749	6.76246	Kuhstr. 33, 47051 Duisburg	Schrankregal	Montag - Samstag von 09:30 - 20:00 Uhr	2. Öffentlicher Bücherschrank der Bürgerstiftung in Zusammenarbeit mit dem WAZ-Leserbeirat; kleines Ladenlokal im ersten Obergeschoss					0		bookcase	www.buergerstiftung-duisburg.de/	openbookcase.org
78	Duisburg-Ruhrort / Gemeindehaus	51.452318	6.734519	Dr. Hammacher-Str. 6, 47116 Duisburg	Schrankregal	Mo. 8-13 Uhr; Di-Fr. 8-17 Uhr	montags von 8 bis 13 Uhr, an den übrigen Werktagen von 8 bis 17 Uhr. 3. Öffentlicher Bücherschrank der Bürgerstiftung "DU liest"""					0		bookcase	www.buergerstiftung-duisburg.de/	openbookcase.org
79	Düsseldorf / Friedensplätzchen	51.212797	6.768363		BOKX 02	24 / 7	Dritter ö.B. in Düsseldorf, betreut vom Literaturbüro NRW e.V.; Ecke Düsselstraße / Wissmannstraße		0	0		0		bookcase		openbookcase.org
80	Düsseldorf / Gerricusplatz	51.236599	6.862259		BOKX 02	24 / 7	betreut vom Literaturbüro NRW e.V.		0	0		0		bookcase		openbookcase.org
81	Düsseldorf / Schillerplatz	51.235709	6.802164		BOKX 02	24 / 7	betreut vom Literaturbüro NRW e.V.		0	0		0		bookcase		openbookcase.org
82	Düsseldorf / Uferpromenade	51.2203450422	6.76691293716		BOKX 02	24 / 7	Zweiter ö.B. in Düsseldorf, betreut vom Literaturbüro NRW e.V.; Mannesmannufer 1b		0	0		0		bookcase		openbookcase.org
83	Eppelheim / Hauptstraße 64	49.4017615795	8.62965881824		Regal mit Plexiglastüren	24 / 7	Initiator: Stadtbücherei Eppelheim					0		bookcase		openbookcase.org
84	Erfurt	50.996108	11.026205		Telefonzelle	10:00 - 18:00 Uhr	Initiator: Kontakt in Krisen e.V.		0	0		0		bookcase		openbookcase.org
85	Nürnberger Straße	49.5946272061	11.0051894188	Nürnberger Str. 4	BOKX 02	24 / 7	ehem. Nürnberger Tor; Gefördert durch den Lions-Club		0	0		0		bookcase		openbookcase.org
86	Eschborn / BAFA	50.134315	8.570992		Vitrine		Für Mitarbeiter und Besucher des Bundesamtes für Wirtschaft und Ausfuhrkontrolle (BAFA); Im Eingang des BAFA					0		bookcase		openbookcase.org
87	Essen (Innogy)	51.4494872238	7.01139628887	Huyssenallee 2, 45128 Essen	Innogy Bücherschrank (BOKX)	24 / 7	gestiftet von der Innogy SE		0	0		0		bookcase	bit.ly/innogycases	openbookcase.org
88	Essen / Brauerei	51.473783	6.9471		Holzregale und Vitrine	24 / 7	Privater Bücherschrank an der Borbecker Dampf-Bierbrauerei; Pförtnerhaus					0		bookcase		openbookcase.org
89	Essen / Grillo-Theater	51.454508	7.012131		Holzschrank	24 / 7	Von der Stiftung Mercator aufgestellt					0		bookcase		openbookcase.org
91	REWE Oeffingen	48.840837	9.257587		Holzschrank	Mo - Sa   7 - 22 Uhr	Ausleihe rund um die Uhr, BAFF Bürger Aktiv für Fellbach	BAFF (Bürger Aktiv für Fellbach)	0	0		0		bookcase		openbookcase.org
92	Forst (Lausitz) / Uferstraße	51.744137	14.64611	Uferstr. 10 / Friedrichplatz	begehbare Litfaßsäule	Mo-Fr 9-17 Uhr & Sa 9-14 Uhr	gefördert über das Bund-Länder-Programm Soziale Stadt		1	0		0		bookcase		openbookcase.org
93	Frankenberg (Eder)	51.058695	8.802532		Telefonzelle	24 / 7	Gefördert durch den Lions-Club Frankenberg		1	0		0		bookcase		openbookcase.org
94	Frankenthal / Strandbad	49.534856	8.362185				im Eingangsbereich des Ostparkbades					0		bookcase		openbookcase.org
95	Frankfurt-Bockenheim	50.122608	8.646098	Leipziger Straße	BOKX	24 / 7	städtische Amt für Straßenbau und Erschließung, Projektgruppe Nahmobilität		0	0		0		bookcase		openbookcase.org
96	Frankfurt-Bonames	50.184478	8.665371		BOKX	24 / 7						0		bookcase		openbookcase.org
97	Frankfurt-Bornheim	50.128624	8.711181		BOKX	24 / 7			0	0		0		bookcase		openbookcase.org
98	Frankfurt-Dornbusch	50.139343	8.670498		BOKX 01	24 / 7	Gefördert durch das Verkehrsdezernat Frankfurt Entwicklung: Hans-Jürgen Greve					0		bookcase		openbookcase.org
99	Frankfurt-Eckenheim	50.150533	8.69009		BOKX 02	24 / 7	Restaurant Bürgerhaus Ronneburg // Herr Boro Celic 069 / 300 595 68		0	0		0		bookcase		openbookcase.org
100	Frankfurt-Eschersheim	50.157103	8.655504		BOKX	24 / 7			0	0		0		bookcase		openbookcase.org
101	Frankfurt-Fechenheim	50.122469	8.771332		?	24 / 7						0		bookcase		openbookcase.org
102	Frankfurt am Main / Berkersheim	50.17007	8.6962		BOKX 01	24 / 7	http://coord.info/GC4CRZ9	Ursula und Klaus Böttger (069/547764)	0	0		0		bookcase		openbookcase.org
104	Frankfurt-Gallus	50.103605	8.629903		BOKX	24 / 7	auch fremdsprachige Auswahl					0		bookcase		openbookcase.org
105	Frankfurt-Ginnheim / Höhenblick	50.146942	8.655004	Kurhessenstrasse, Ecke Höhenblick	BOKX	24 / 7			0	0		0		bookcase		openbookcase.org
106	Frankfurt-Ginnheim / Kirchplatz	50.1443290074	8.64896535873		BOKX	24 / 7						0		bookcase		openbookcase.org
108	Frankfurt-Gutleutviertel	50.102265	8.66121		?	24 / 7						0		bookcase		openbookcase.org
109	Frankfurt-Hausen / Brentanobad	50.125955	8.619513		Bücherschrank		Schwerpunkt auf Kriminalliteratur / im Brentanobad					0		bookcase		openbookcase.org
110	Frankfurt-Höchst	50.102474	8.550044		BOKX	24 / 7						0		bookcase		openbookcase.org
111	Frankfurt-Nied	50.108038	8.584185		?	24 / 7						0		bookcase		openbookcase.org
112	Frankfurt-Niederrad	50.08635	8.643456	Bruchfeldstraße 65, 60528 Frankfurt am Main	BOKX	24 / 7						0		bookcase		openbookcase.org
113	Frankfurt-Niederursel	50.165386	8.617744		britische Telefonzelle	24 / 7						0		bookcase		openbookcase.org
114	Frankfurt Merianplatz	50.120504	8.696124		BOKX 01	24 / 7	Gefördert durch das Verkehrsdezernat Frankfurt; Entwicklung: Hans-Jürgen Greve		0	0		0		bookcase		openbookcase.org
115	Frankfurt-Nordend	50.121287	8.680304		BOKX 01	24 / 7	Gefördert durch das Verkehrsdezernat Frankfurt; Entwurf: Trixy Royeck; Entwicklung: Hans-Jürgen Greve					0		bookcase		openbookcase.org
116	Frankfurt-Ostend / Parlamentsplatz	50.120229	8.714491		BOKX	24 / 7			0	0		0		bookcase		openbookcase.org
117	Frankfurt-Ostend / Paul-Arnsberg-Platz	50.110655	8.69948		?	24 / 7						0		bookcase		openbookcase.org
118	Frankfurt-Preungesheim / Gravensteiner Platz	50.155759	8.698202		?	24 / 7			0	0		0		bookcase		openbookcase.org
119	Frankfurt-Riederwald	50.1285	8.733984		?	24 / 7						0		bookcase		openbookcase.org
120	Bücherschrank Lokalbahnhof, Frankfurt-Sachsenhausen	50.103538	8.691463	Dreieichstraße 59, 60594 Frankfurt am Main	BOKX	24 / 7						0		bookcase		openbookcase.org
121	Frankfurt-Seckbach	50.140969	8.720655		BOKX 02	24 / 7	Gefördert durch das Verkehrsdezernat FrankfurtEntwurf: Hans-Jürgen GreveAusstattung der Kunstvitrine durch das Nachbarschaftsbüro Seckbach					0		bookcase		openbookcase.org
122	Frankfurt-Zeilsheim	50.097065	8.497841		BOKX	24 / 7	nähe Stadthalle					0		bookcase		openbookcase.org
123	Freiburg im Breisgau- Günterstal	47.96565	7.856383	Schauinslandstr. 41/43	Holzregal	24 / 7	Arkaden am oberen Ende des Klosterplatzes					0		bookcase		openbookcase.org
124	Bücherkühlschrank &#34;Coole Bücher&#34; 	48.00583333	7.84718333	Tennebacher Platz, Freiburg - Stühlinger Beurbarung	alte Kühlschränke	24 / 7	initiiert und betreut vom Stadtteiltreff Brühl-Beurbarung; Tennebacher Platz					0		bookcase		openbookcase.org
125	KHG Freiburg-Wiehre	47.985208	7.842908		Holzregal	Während des Semesters Mo–Do: 8.00 -12.30 Uhr & 13.30 -16.30 Uhr Fr: 8.00 -12.30 Uhr & 13.30 -15.00 Uhr	Katholische Hochschulgemeinde Edith Stein, Lorettostraße 24, 79100 Freiburg i. Br.					0		bookcase		openbookcase.org
126	Freudenberg	49.743183	9.323333			24 / 7	Pavillon an der Mainpromenade					0		bookcase		openbookcase.org
127	Fulda / Umweltzentrum	50.542562	9.665379		Holzschrank	24 / 7	Umweltzentrum Fulda		0	0		0		bookcase		openbookcase.org
128	Giften / Heinrichstraße	52.214261	9.831363		Bücherschrank	24 / 7	Gesponsert vom Marketingverein Fair-Giften e.V. GiftenEntwurf und Ausführung: NewMac Designs					0		bookcase		openbookcase.org
129	Göttingen - Immanuel Kant Straße	51.5239113861	9.94658052921		Vitrine	24 / 7	vor dem Geschäft der Straßensozialarbeit					0		bookcase		openbookcase.org
130	Göttingen - Leineberg	51.5264412745	9.91574048996		Schrank	24 / 7	Der Schrank ist anscheinen umgezogen. Jetziger Standort ist direkt vorm Stadtteilbüro Leineberg					0		bookcase		openbookcase.org
131	Göttingen - Holtenser Berg	51.560615	9.903035		 	24 / 7	neben der Bushaltestelle					0		bookcase		openbookcase.org
132	Gronau (Westf.)	52.217887	7.003288		Telefonzelle	24 / 7	auf dem Gelände des Stadtteilzentrums GroW Diakonisches Werk Mein Gronauer Westen					0		bookcase		openbookcase.org
133	Häger	52.095198	8.451299		Bücherregal	24 / 7	barrierefrei					0		bookcase		openbookcase.org
134	Halle (Saale)	51.476652	11.971768		Holzregal mit Plexiglastüren	24 / 7	initiiert durch die Franckeschen Stiftungen, betreut vom Spielehaus		1	0		0		bookcase		openbookcase.org
135	Hamburg-Eppendorf	53.582122	9.973611		Bücherschrank	24 / 7	Vor der Kirche St. Markus		0	0		0		bookcase		openbookcase.org
136	Hamm	51.682013	7.820789		Schrank	24 / 7	barrierefreier Zugang; Initiative: "Humanitas e.V.""; gebaut vom TÜV Nord nach Vorbild in Hannover"					0		bookcase		openbookcase.org
137	Hannover (Altstadt)	52.371692	9.735089	neben der Marktkirche	Holzschrank	24 / 7	wird im Winter zum Weihnachtsmarkt eingelagert					0		bookcase		openbookcase.org
138	Hannover-Ahlem	52.384593	9.665389		Holzschrank	24 / 7	Wunstorfer Landstraße, vor der Martin-Luther-Kirche					0		bookcase		openbookcase.org
139	Hannover-Anderten	52.360549	9.845537		Holzschrank	24 / 7	Am Tiergarten (Eingang zum Spielplatz)					0		bookcase		openbookcase.org
140	Hannover-Badenstedt	52.35835	9.6864		Holzschrank	24 / 7	Körtingsdorf 1					0		bookcase		openbookcase.org
141	Hannover-Bemerode	52.346661	9.828078		Holzschrank	24 / 7	Rathausplatz					0		bookcase		openbookcase.org
142	Hannover-Bornum	52.350048	9.68449	Im Dorfe, Ecke Ludwig-Gleue-Weg	Holzschrank	24 / 7						0		bookcase		openbookcase.org
143	Hannover-Bothfeld	52.420163	9.799889		Holzschrank	24 / 7	Kurze-Kamp-Straße, Höhe Einsteinstraße		0	0		1	Bücherschrank wurde entfernt. Mit Kioskbesitzer gesprochen, aber nähere Umstände sind mir unbekannt geblieben.	bookcase		openbookcase.org
144	Hannover-Bult	52.362137	9.770618		Holzschrank	24 / 7	Menschingstraße, auf dem Kirchplatz der Melanchthongemeinde					0		bookcase		openbookcase.org
145	Hannover-Calenberger Neustadt	52.370894	9.728306		Holzschrank	24 / 7	Neustädter Markt					0		bookcase		openbookcase.org
146	Hannover-Davenstedt	52.363379	9.67412		Holzschrank	24 / 7	Davenstedter Marktplatz					0		bookcase		openbookcase.org
147	Hannover-Döhren	52.34009	9.763358		Holzschrank	24 / 7	Fiedelerplatz					0		bookcase		openbookcase.org
148	Hannover-Groß-Buchholz	52.403008	9.798818	 	Holzschrank	24 / 7	Bussestraße, Ende Merianweg		0	0		0		bookcase		openbookcase.org
149	Hannover - Groß-Buchholz II	52.392704	9.822383	 	Holzschrank	24 / 7	Milanstraße, Ecke Schwalbenflucht					0		bookcase		openbookcase.org
150	Hannover-Hainholz	52.400708	9.716228		Holzschrank	24 / 7	vor dem Kulturhaus					0		bookcase		openbookcase.org
151	Hannover-Herrenhausen	52.393496	9.68507	Herrenhäuser Straße, Ecke Meldaustraße	Holzschrank	24 / 7						0		bookcase		openbookcase.org
152	Hannover-Kirchrode	52.36113	9.82882		Holzschrank	24 / 7	Tiergartenstraße, Ecke Schwemannstraße					0		bookcase		openbookcase.org
153	Hannover-Kleefeld	52.375517	9.795884	Ebellstraße	Holzschrank	24 / 7						0		bookcase		openbookcase.org
154	Hannover-Ledeburg	52.4129	9.678304	Am Fuhrenkampe, Ecke Immelmannstraße	Holzschrank	24 / 7						0		bookcase		openbookcase.org
155	Hannover-Limmer	52.37741	9.684867	 	Holzschrank	24 / 7	Stadtbahnhaltestelle &#34;Brunnenstraße&#34;					0		bookcase		openbookcase.org
156	Hannover-Linden Pestalozzistraße	52.373494	9.702971		Büchertauschkiste	24 / 7	privater Betreiber / Pestalozzistr. 13					0		bookcase		openbookcase.org
157	Hannover - Linden-Nord	52.375617	9.706914	Pfarrlandstraße, 30451 Hannover	Holzschrank	24 / 7	Pfarrlandstraße Höhe Pfarrlandplatz					0		bookcase		openbookcase.org
158	Hannover - Linden-Süd	52.36048	9.718105	Charlottenstraße, Ecke Haspelmathstraße	Holzschrank	24 / 7						0		bookcase		openbookcase.org
159	Hannover-List	52.389895	9.745721	Jakobistraße, Ecke Harnischstraße	Holzschrank	24 / 7			0	0		0		bookcase		openbookcase.org
160	Hannover-List II / Liliencronplatz	52.4006	9.77501		Holzschrank	24 / 7	Liliencronplatz		0	0		0		bookcase		openbookcase.org
161	Hannover-Misburg	52.388895	9.856317	Anderter Straße, Ecke Am Seelberg	Holzschrank	24 / 7	gegenüber Café Mephisto					0		bookcase		openbookcase.org
162	Hannover-Nordstadt	52.385032	9.724405	Engelbosteler Damm, Ecke Tulpenstraße	Holzschrank	24 / 7						0		bookcase		openbookcase.org
163	Hannover-Oberricklingen	52.342216	9.713684		Holzschrank	24 / 7	Wallensteinstraße, gegenüber Butjerbrunnenplatz					0		bookcase		openbookcase.org
164	Hannover-Sahlkamp	52.4142	9.77904		Holzschrank	24 / 7	Stadtteiltreff Elmstraße		0	0		0		bookcase		openbookcase.org
165	Hannover-Stöcken	52.409313	9.661389		Holzschrank	24 / 7	Ithstraße, am Stadtteilladen					0		bookcase		openbookcase.org
166	Hannover-Südstadt	52.362284	9.753841		Holzschrank	24 / 7	Schlägerstraße, Ecke Osterleystraße, gegenüber der Post					0		bookcase		openbookcase.org
167	Hannover-Wülfel	52.32785	9.77764		Holzschrank	24 / 7	Hildesheimer Straße, Höhe Dorfstraße					0		bookcase		openbookcase.org
168	Hannover-Zoo	52.3743	9.761245		Holzschrank	24 / 7	Plathnerstraße, an der Friedenskirche					0		bookcase		openbookcase.org
169	Hattingen-Welper	51.406672	7.227569		Holzschrank	24 / 7	von der Stiftung Mercator aufgestellt					0		bookcase		openbookcase.org
170	Heidelberg-Altstadt	49.409992	8.695192	Neugasse, 69117 Heidelberg	Bücherregal	24 / 7	Neugasse; Gefördert durch die Bürgerstiftung Heidelberg; momentan nicht mehr da, vielleicht wegen der Baustelle??					0		bookcase	www.buergerstiftung-heidelberg.de/projekte/aktion-leselust/	openbookcase.org
171	Heidelberg-Handschuhsheim	49.429564	8.682064		Holz-Bücherregal		inoffiziell, private Betreuung					0		bookcase		openbookcase.org
172	Heidelberg-Handschuhsheim II	49.418057	8.667424		Stahl-Bücherregal	während der Öffnungszeiten des SLZ	Öffentliches Bücherregal der Pädagogischen Hochschule Heidelberg im Selbstlernzentrum für Sprachen (SLZ), hauptsächlich fremdsprachige Bücher; Zimmer A308					0		bookcase		openbookcase.org
173	Heidelberg-Neuenheim	49.414594	8.690281		Holz-Bücherregal	24 / 7	Stadtteilverein Neuenheim					0		bookcase		openbookcase.org
174	Heidelberg-Weststadt	49.403319	8.687483		Bücherregal	24 / 7	Gefördert durch die Bürgerstiftung Heidelberg					0		bookcase	www.buergerstiftung-heidelberg.de/projekte/aktion-leselust/	openbookcase.org
175	Heidelberg-Ziegelhausen	49.417975	8.757431		Bücherregal	24 / 7	Förderung unbekannt					0		bookcase		openbookcase.org
176	Heiligenhaus / Basildonplatz (Innogy)	51.3267836929	6.96948409081	Friedhofstraße / Am Basildonplatz, 42579 Heiligenhaus	Innogy Bücherschrank (BOKX)	24 / 7	initiiert vom Arbeitskreis Kultur und Gesellschaft; gestiftet von der Innogy SE					0		bookcase	bit.ly/innogycases	openbookcase.org
177	Hemer-Ihmert	51.32874	7.737796		Holzschrank	24 / 7	Ihmerter Park		0	0		0		bookcase		openbookcase.org
178	Hennef	50.775368	7.284134		Stahlschrank	24 / 7						0		bookcase		openbookcase.org
179	Heppenheim	49.641238	8.643473		Holzschrank	24 / 7	Ecke Graben / Kellereigasse		0	0		0		bookcase		openbookcase.org
180	Herne	51.53924	7.256412	Mont-Cenis-Straße 267, Herne	Bücherschrank	24 / 7			0	0		0		bookcase		openbookcase.org
181	Hildesheim	52.152778	9.957118		Offener Bücherschrank	24 / 7	Verein für öffentlichen Bücherschrank					0		bookcase		openbookcase.org
182	Höchst im Odenwald	49.794408	8.988729		Holzschrank	24 / 7	eingerichtet durch die Interessengemeinschaft Güterhalle www.gueterhalle-hoechst.de					0		bookcase		openbookcase.org
183	Hof an der Saale	50.3177	11.921577		Bücherregal	während der Öffnungszeiten	Offenes Bücherregal der VHS Landkreis Hof, Sitzgelegenheiten zum Schmökern vorhanden; im 2. Stock des VHS-Seminarzentrums im Hauptgebäude der Hoftexgroup					0		bookcase		openbookcase.org
184	Hopsten - OT Schale (Innogy)	52.44593	7.626962	Kirchstr. Ecke Poststr., 48496 Hopsten - Schale	Innogy Bücherschrank (BOKX)	24 / 7	gestiftet von der Innogy SE					0		bookcase	bit.ly/innogycases	openbookcase.org
185	Hoyerswerda	51.431148	14.259025		Telefonzelle	24 / 7	vor dem Mehrgenerationenhaus Albert-Schweitzer-Straße 9					0		bookcase		openbookcase.org
186	Bücherbaum Hüfingen	47.925594	8.489406	Hauptstr. 30, 78138 Hüfingen	Baumstamm mit Fächern	24 / 7	an der Haltestelle					0		bookcase		openbookcase.org
187	Hüllhorst (Innogy)	52.264206	8.680895	Löhner Straße 30, 32609 Hüllhorst	Innogy Bücherschrank (BOKX)	24 / 7	gestiftet von der Innogy SE					0		bookcase	bit.ly/innogycases	openbookcase.org
188	Hürtgenwald-Gey (Innogy)	50.7492358608	6.42016232014	Dürener Straße 44, 52393 Hürtgenwald-Gey	Innogy Bücherschrank (BOKX)	24 / 7	gestiftet von der Innogy SE		0	0		0		bookcase	bit.ly/innogycases	openbookcase.org
189	Hürth-Alt-Hürth	50.871205	6.868054		Kleines Bücherregal	Mo.-So. 8-17 Uhr	Kaffee Jambo; Privatinitiative					0		bookcase		openbookcase.org
190	Hürth-Alt-Hürth II	50.86904	6.864686		Kleines Bücherregal	Di.-So. 8-17 Uhr	Kaffee Kränzchen; Privatinitiative					0		bookcase		openbookcase.org
191	Hürth-Hermülheim	50.8807302157	6.89139425755		Telefonzelle	24 / 7	Ortsgemeinschaft		0	0		0		bookcase		openbookcase.org
192	Ibbenbüren (Innogy)	52.274174	7.713136	Am Alten Posthof 27, 49477 Ibbenbüren	Innogy Bücherschrank (BOKX)	24 / 7	gestiftet von der Innogy SE					0		bookcase	bit.ly/innogycases	openbookcase.org
193	Ihringen am Kaiserstuhl	48.031021	7.657846		Bücherregal	zu den Öffnungszeiten des Schwimmbads zugänglich	Kaiserstuhlbad					0		bookcase		openbookcase.org
194	Illertissen	48.240342	10.133071		Ehemaliges Bienenhaus	in den warmen Monaten 9.00–18.00 Uhr	Betreiber ist die Stiftung Gartenkultur; Auf dem Parkplatz des Museums der Gartenkultur; Jungviehweide		0	0		0		bookcase		openbookcase.org
195	Bücherei Iserlohn	51.374243	7.697096		Korb-Truhe	während der Öffnungszeiten	Foyer der Stadtbücherei, Alter Rathausplatz 1		0	0		0		bookcase		openbookcase.org
196	Itzehoe	53.922975	9.5184		Telefonzelle	24 / 7	Eine Initiative vieler Itzehoer Gastwirte; Kirchenstraße					0		bookcase		openbookcase.org
197	Karlsruhe / Lidellplatz	49.007304	8.407192		BOKX 02	24 / 7	Initiiert und gespendet von Cornelia Holsten an den Bürgerverein Altstadt / Entwurf: Hans-Jürgen Greve					0		bookcase	www.facebook.com/GiveboxKarlsruhe	openbookcase.org
198	Karlsruhe / Osterndorfplatz	48.9761010323	8.40746998787	Im Grün 8–9, 76199 Kaqrlsruhe-Rüppurr	Aluminium-Verbund	24 / 7						0		bookcase		openbookcase.org
199	Karlsruhe / Stadtgarten	48.9973390812	8.39981496334		Schrank	Während der Öffnungszeiten des Stadtgartens	nur erreichbar durch den Zoo, Zooeintritt ist kostenpflichtig  Initiiert und teilweise finanziert von den Zoofreunden Karlsruhe, ausgeführt durch das Gartenbauamt; Heckengarten in der Friedrich-Wolff-Anlage		0	0		0		bookcase		openbookcase.org
200	Karlsruhe / Werderplatz	49.0015553391	8.40695500374		BOKX 02	24 / 7	Initiiert und gespendet von Cornelia Holsten an die Bürgergesellschaft Südstadt / Entwurf: Hans-Jürgen Greve		0	0		0		bookcase		openbookcase.org
201	Kassel	51.315398	9.473533	Querlallee/ Friedrich-Ebert-Straße 	Bücherschrank	24 / 7	Bürgerinitiative; Friedrich-Ebert-Straße / Ecke Querallee		1	0		0		bookcase		openbookcase.org
202	Kassel / Flussterminal	51.302453	9.502835		Flussterminal	24 / 7	Installiert durch die Ars Natura Stiftung, Spangenberg; Schwimmbadbrücke		0	0		0		bookcase	www.ars-natura-stiftung.de/index.php/de/kunstwerk/172?c=27&ts=11	openbookcase.org
203	Kassel / Universität	51.321767	9.50521		Telefonzelle	24 / 7	Steht auf dem Campus der Universität Kassel und wurde von der studentischen Initiative für Nachhaltigkeit und dem AStA Kassel initiiert.		1	0		0		bookcase		openbookcase.org
204	Kempten (Allgäu) / Beginenhaus	47.724466	10.321942		Bücherschrank		Förderverein Beginenhaus Kempten e.V., eingebaut in einem ehemaligen Schaufenster des Beginenhauses.		0	0		0		bookcase		openbookcase.org
205	Kernen im Remstal	48.7891	9.341667		Metallregal	24 / 7	barrierefreier Zugang, Initiative: Bürgerstiftung Kernen i.R		0	0		0		bookcase		openbookcase.org
206	Kerpen / Rathaus	50.873051	6.691235		Bücherregal		Initiative der Fraktion Bündnis 90/Grüne; Im Rathaus-Foyer					0		bookcase		openbookcase.org
207	Bücherregal Kirchzarten Bahnhof	47.967945	7.95938	Bahnhofstr. 25, 79199 Kirchzarten	Bücherregal	24 / 7	im Warteraum des Bahnhofs		0	0		0		bookcase		openbookcase.org
208	Köln / Adolf-Grimme-Allee	50.985046	6.890128				Im Eingangsbereich des Dienstleistungszentrums der Sparkasse Köln-Bonn					0		bookcase		openbookcase.org
209	Köln / Berrenrather Straße	50.920063	6.927309				Im Reisebüro Töller					0		bookcase		openbookcase.org
211	Köln / GoltsteinForum	50.908054	6.970332				Gefördert durch das Projekt Eselsohr der Bürgerstiftung Köln Entwurf: Hans-Jürgen Greve					0		bookcase		openbookcase.org
212	Köln / Graseggerstraße	50.992508	6.924921				Vor dem Gebäude der Sozialstation am Heilig-Geist-Krankenhaus					0		bookcase		openbookcase.org
213	Köln / Hahnenstraße	50.935383	6.940919		Regal		In der Cafeteria der Hauptstelle der Sparkasse Köln-Bonn		0	0		0		bookcase		openbookcase.org
214	Köln / IKEA Godorf	50.8618504299	6.97123289108	Godorfer Hauptstr. 171 · 50997 Köln	Regal	 Mo - Do:10:00 bis 20:00,  Fr.: 10:00 bis 21:00,  Sa.: 10:00 bis 20:00	Im Kassenbereich, neben der Warenausgabe					0		bookcase		openbookcase.org
215	Köln / IKEA Ossendorf	50.984539	6.89773				Im Ausgangsbereich zum östlich gelegenen Parkplatz					0		bookcase		openbookcase.org
216	Köln / Josef-Esser-Platz	50.965557	6.895941			24 / 7						0		bookcase		openbookcase.org
217	Köln / Mühlenbrunnen	50.974796	7.074573			immer	An der KVB-Haltestelle &#39;Dellbrücker Hauptstraße&#39;		0	0		0		bookcase		openbookcase.org
218	Köln / Rathenauplatz	50.931332	6.936977		roter Bokx-Bücherschrank	24 / 7			0	0		0		bookcase		openbookcase.org
219	Köln / Rheinauhafen	50.923893	6.967109			24 / 7	Neben dem Bayenturm		0	0		0		bookcase		openbookcase.org
220	Köln / Rolandstrasse	50.919773	6.954043			24 / 7	Auf dem Mittelstreifen, Ecke Merowingerstrasse.		0	0		0		bookcase		openbookcase.org
221	Köln / Ruhrorter Straße	50.972137	6.966705			24 / 7	Vor dem Ledo-Mehrgenerationenwohnhaus		0	0		0		bookcase		openbookcase.org
222	Köln / Zum Hedelsberg	50.87458	7.02639			24 / 7	Vor der Albert-Schweitzer-Gemeinschaftsgrundschule		0	0		0		bookcase		openbookcase.org
223	Korschenbroich (Innogy)	51.190279	6.513041	Kirchplatz 6, 41325 Korschenbroich	Innogy Bücherschrank (BOKX)	24 / 7	gestiftet von der Innogy SE		0	0		0		bookcase	bit.ly/innogycases	openbookcase.org
224	Kreuzau – Stockheim (Innogy)	50.756495	6.527546	An der Tränke 6, 52372 Kreuzau - Stockheim	Innogy Bücherschrank (BOKX)	24 / 7	gestiftet von der Innogy SE					0		bookcase	bit.ly/innogycases	openbookcase.org
225	Kronach	50.23957	11.323808		BOKX 01	24 / 7	Gefördert durch den Lions-ClubEntwurf: Trixy RoyeckEntwicklung: Hans-Jürgen Greve					0		bookcase		openbookcase.org
226	Bad Breisig (Innogy)	50.5072893438	7.30148255825	Koblenzer Straße 39 / 53498 Bad Breisig	Innogy Bücherschrank (BOKX)	24 / 7	gestiftet von der Innogy SE; der Schrank befindet sich im Kurpark vor der Tourist-Info (nachdem der Buchschrank am Brunnen leider Vandalismus zum Opfer fiel) 					0		bookcase	bit.ly/innogycases	openbookcase.org
227	Laatzen	52.312419	9.789259		Holzschrank	24 / 7	Am Lindeplatz					0		bookcase		openbookcase.org
228	Laatzen	52.287584	9.823161		Holzschrank	24 / 7						0		bookcase		openbookcase.org
229	Ladenburg	49.471717	8.607953		Stahlregal	24 / 7	Am Rathaus		0	0		0		bookcase		openbookcase.org
230	Lehrte	52.376041	9.976499	August-Bödecker-Platz 1 · 31275 Lehrte		mo-fr 8-13, mo,di,do 14:30-18	Eingangsbereich der Volksbank-Filiale, Einkaufszentrum Zuckerfabrik					0		bookcase	vb-eg.de	openbookcase.org
231	Lehrte / Rathausplatz	52.373513	9.975744	Rathausplatz 1 · 31275 Lehrte	Telefonzelle	24 / 7	Marktplatz neben der Sparkasse					0		bookcase		openbookcase.org
232	Lehrte-Aligse	52.401684	9.974469	Peiner Heerstr. 34 · 31275 Lehrte		mo-fr 8-13. & mo,di,do 14:30-18	Eingangsbereich der Volksbank-Filiale	vb-eg.de				0		bookcase		openbookcase.org
233	Lehrte-Sievershausen	52.370644	10.128728			beschränkte Öffnungszeiten	Apotheke					0		bookcase		openbookcase.org
234	Lennestadts Offener Bücherschrank	51.104587	8.072305	Hundemstr. 18, 57368 Lennestadt-Altenhundem, Deutschland	Stahl/Glas	24 / 7	Platz vor dem Bahnhof/Pressehaus. - Alle Bücher werden innen gestempelt mit &#34;LOB - Lennestadts offener Bücherschrank&#34;. Der Stempel läßt sich nicht entfernen.					0		bookcase		openbookcase.org
235	Lörrach / Senegalliaplatz	47.614605	7.660901		Schrank	24 / 7	barrierefreier Zugang; Initiative:"Bürgerstiftung Lörrach"""					0		bookcase		openbookcase.org
236	Lörrach-Stetten / Rathausgasse	47.601548	7.663975		Schrank	24 / 7	barrierefreier Zugang; Initiative:"Bürgerstiftung Lörrach""; beim Brunnen am ""Milchhüsli"""					0		bookcase		openbookcase.org
237	Lübeck	53.858037	10.664365	Hansering 20b	Schrank aus beschichtetem Sperrholz mit Plexiglasscheiben	24 / 7	finanziert von Christian Dräger; St.-Lorenz-Süd vor dem Stadtteilhaus		1	0		0		bookcase		openbookcase.org
238	Ludwigsstadt / Marktplatz	50.484712	11.388535		BOKX 01	24 / 7	Gefördert durch den Lions-ClubEntwicklung: Hans-Jürgen Greve					0		bookcase		openbookcase.org
239	Lünen	51.625743	7.511864		Gelbe Telefonzelle	24 / 7	vor der Autowaschanlage					0		bookcase		openbookcase.org
240	Lünen / Willi-Brandt-Platz	51.61417	7.521315		Grüne Telefonzelle	24 / 7	Neben dem Rathaus					0		bookcase		openbookcase.org
241	Lützelbach-Seckmauern	49.789953	9.120926			feste Öffnungszeiten	im Dorfgemeinschafthaus					0		bookcase		openbookcase.org
242	Mainz / Universität - Institut für Physik	49.990575	8.234963		Schrank	24 / 7	im Institut für Physik		0	0		0		bookcase		openbookcase.org
243	Mainz / Karmeliterplatz	50.002507	8.272438		Metallschrank	24 / 7	Schwerpunkt Kinderbücher; vor dem Haupteingang des vhs-Gebäudes		0	0		0		bookcase		openbookcase.org
244	Mainz-Bretzenheim	49.9820266383	8.24575960636		Vitrine	24 / 7	Initiative eines Partei-Ortsvereins; Straßenbahnendstation Bahnstraße		0	0		0		bookcase		openbookcase.org
245	Mainz-Gonsenheim	50.003005	8.211397		Holzschrank	24 / 7	nur Kinderbücher; vor Kinderbuchhandlung in der Breiten Straße					0		bookcase		openbookcase.org
246	Mainz-Laubenheim	49.964304	8.320872		Vitrine	24 / 7	diverse; Ecke an der KiTa MinniMax in der Rüsselsheimer Allee					0		bookcase		openbookcase.org
247	Mainz-Neustadt	50.012258	8.265464		Verteilerkasten	24 / 7	Feldbergplatz, Taunusstraße		0	0		0		bookcase		openbookcase.org
248	Mainz-Oberstadt	49.978833	8.264299		Verteilerkasten	24 / 7	Berliner Siedlung; auf einer Wiese, am Ende des Fußwegs von der Berliner Straße zum Dampfbahnweg		0	0		0		bookcase		openbookcase.org
249	Mannheim / Neumarkt	49.498931	8.466964		Aluminium-Verbund	24 / 7			0	0		0		bookcase		openbookcase.org
250	Meitingen	48.542199	10.852778		Bücherregal	Mo u. Do. 15.00-19.00; Di u. Fr. 10.00-14.00	Foyer der Bücherei Meitingen					0		bookcase		openbookcase.org
251	Mettingen (Innogy)	52.316523	7.780675	Rathausplatz 2-4, 49497 Mettingen	Innogy Bücherschrank (BOKX)	24 / 7	gestiftet von der Innogy SE					0		bookcase	bit.ly/innogycases	openbookcase.org
252	Mettmann (Innogy)	51.257648105	6.95150792599	Steinesweg 2, 40822 Mettmann	Innogy Bücherschrank (BOKX)	24 / 7	gestiftet von der Innogy SE		0	0		0		bookcase	bit.ly/innogycases	openbookcase.org
253	Michendorf	52.31272	13.034122		britische Telefonzelle	24 / 7	Haus Sankt Georg in der Langerwischer Straße		1	0		0		bookcase		openbookcase.org
254	Mommenheim / Zwerchgasse	49.882489	8.271205		Verteilerkasten	24 / 7						0		bookcase		openbookcase.org
255	Monschau (Innogy)	50.556606	6.240338	Laufenstraße 42, 52156 Monschau	Innogy Bücherschrank (BOKX)	24 / 7	gestiftet von der Innogy SE					0		bookcase	bit.ly/innogycases	openbookcase.org
256	Mühlbach (Oberpfalz)	49.02195	11.61705	Mühlbach, Obermühlenweg	Holzhaus	immer	Initiiert durch Erika Hladky, umgesetzt mit Hilfe von Bernhard May (Ortssprecher Mühlbach) und Dieter Gebelein (KGM)); auf dem Kirchplatz in der Ortsmitte, neben dem Mühlbach					0		bookcase		openbookcase.org
257	Mühlhausen / Thüringen	51.20587	10.451825		Holzschrank	Mo 10-18 Uhr/ Di-Fr 10-21 Uhr und Sa 14-21 Uhr	Entstanden in einem Gemeinschaftsprojekt der Mühlhäuser Stadtbibliothek, dem Geschwister-Scholl-Heim/ Mehrgenerationenhaus, dem Jugendtechnikzentrum und Schülern der Praxisklasse 7P der staatlichen Regelschule „Petrischule“ aus Mühlhausen. Bestückt mit Büchern der Mühlhäuser Stadtbibliothek und Beständen des Mehrgenerationenhauses. Zu nutzen während der Öffnungszeiten des Mehrgenerationenhauses.					0		bookcase		openbookcase.org
258	Mülheim an der Ruhr (Innogy)	51.426521	6.882652	Siegfried Reda Platz, 45468 Mühlheim an der Ruhr	Innogy Bücherschrank (BOKX)	24 / 7	gestiftet von der Innogy SE		0	0		0		bookcase	bit.ly/innogycases	openbookcase.org
259	Öffentlicher Metallkoffer der Bookbench	48.152717	11.579931	Akademiestraße, 80799 München	Metallkoffer	24 Std. 7 Tage	auf der Bookbench		0	0		0		bookcase		openbookcase.org
260	Münster Berg Fidel	51.92662	7.620875		Holzschrank, offen	24 / 7	vor dem Förderverein Alte Post					0		bookcase		openbookcase.org
261	Münster-Kreuzviertel	51.970507	7.624268		Holzschrank, geschlossen, wetterfest	24 / 7	Gefördert durch Restaurant Kreuzviertel					0		bookcase		openbookcase.org
262	Münster-Kreuzviertel / Kino	51.97107	7.61404		Bücherregal	nur während den Öffnungszeiten	Im Kino Schloßtheater					0		bookcase		openbookcase.org
263	Münster-Kuhviertel / Rosenplatz	51.96531	7.621611		Holzregal, offen	24 / 7	Erstes offenes Bücherregal in Münster, gefördert durch: Interessen- gemeinschaft Kuhviertel					0		bookcase		openbookcase.org
264	Neckargemünd-Mückenloch	49.388361	8.85586				am Eingang des ehemaligen Rathaus, in dem die heutige Verwaltungsstelle für den Stadtteil Mückenloch ist					0		bookcase		openbookcase.org
265	Neuenkirchen (Innogy)	52.510713	8.065369		Innogy Bücherschrank (BOKX)	24 / 7	gestiftet von der Innogy SE					0		bookcase		openbookcase.org
266	Neunkirchen-Seelscheid	50.842931	7.336069		Stahlschrank	24 / 7	Vor der KSK in Seelscheid					0		bookcase		openbookcase.org
267	Neuss	51.20142	6.685062		Bücherschrank	zu den Öffnungszeiten	in der Familienbildungsstätte Willi-Graf-Haus der Katholischen Arbeitsgemeinschaft für Weiterbildung		0	0		0		bookcase		openbookcase.org
268	Neustadt am Rübenberge	52.504034	9.461229		Bücherschrank	24 / 7	An der Liebfrauenkirche					0		bookcase		openbookcase.org
269	Neustadt an der Weinstraße	49.335804	8.129794		kleine Kiste	So: 11-12:30, Di: 17-19, Do: 17-18	während der Öffnungszeiten der Kath. öffentlichen Bücherei St. Jakobus in Neustadt-Hambach und immer, wenn das Pfarrheim geöffnet hat					0		bookcase		openbookcase.org
270	Nideggen (Innogy)	50.688716	6.483177	Zülpicher Str. 15, 52385 Nideggen	Innogy Bücherschrank (BOKX)	24 / 7	gestiftet von der Innogy SE					0		bookcase	bit.ly/innogycases	openbookcase.org
271	Niederzier (Innogy)	50.868527	6.474549	Niederzierer Straße 15, 52382 Niederzier	Innogy Bücherschrank (BOKX)	24 / 7	gestiftet von der Innogy SE					0		bookcase	bit.ly/innogycases	openbookcase.org
272	Norderstedt	53.71545	10.00451		Stahlschrank	24 / 7	Private Initiative; Grootkoppelstrasse		0	0		0		bookcase		openbookcase.org
273	Nörvenich (Innogy)	50.809274	6.642018	Bahnhofstr. 25, 52388 Nörvenich	Innogy Bücherschrank (BOKX)	24 / 7	gestiftet von der Innogy SE					0		bookcase	bit.ly/innogycases	openbookcase.org
274	Gutmann am Dutzendteich	49.435283	11.116664	Bayernstraße 150, 90478 Nürnberg	Bücherregal	nur zu den Öffnungszeiten zugänglich	im Eingangsbereich der Gaststätte Gutmann am Dutzendteich					0		bookcase		openbookcase.org
275	Ochtrup	52.21032	7.190082		Bücherschrank	24 / 7	neben der Bücherei					0		bookcase		openbookcase.org
276	Swistal-Odendorf (Innogy)	50.647256	6.880963	Am Zehnthof, 53913 Swisttal-Odendorf	Innogy Bücherschrank (BOKX)	24 / 7	gestiftet von der Innogy SE; am Zehnthofplatz					0		bookcase	bit.ly/innogycases	openbookcase.org
277	Offenbacher Bücherschrank	50.1084900789	8.76170396805	Kaiserstraße 39, 63065 Offenbach	Holzregal	Montag , Dienstag, Mittwoch, Freitag 08:00 - 13:00 Uhr,  Donnerstag 15:00 - 20:00 Uhr	im Bürgerbüro		0	0		0		bookcase		openbookcase.org
278	Bücherschrank W58	50.090944	8.757171	Weikertsblochstraße 58	Holzhäuschen mit Holzregalen	nur tagsüber geöffnet	vor dem Mehrgenerationenhaus		0	0		0		bookcase		openbookcase.org
279	Schanzenbäckerei	50.105731	8.769621		Regal	nur während der Öffnungszeiten zugänglich	in der Schanzenbäckerei		0	0		0		bookcase		openbookcase.org
280	Öhringen Hauptbahnhof	49.203194	9.502699		Holzregal	nur während der Öffnungszeiten zugänglich (Mo-Fr tagsüber und Sa vormittags. Sonn- und feiertags geschlossen.)	im Gebäude des Hauptbahnhofs					0		bookcase		openbookcase.org
281	Ostercappeln (Innogy)	52.344175	8.224795	Kirchplatz 6, 49179 Ostercappeln	Innogy Bücherschrank (BOKX)	24 / 7	gestiftet von der Innogy SE					0		bookcase	bit.ly/innogycases	openbookcase.org
282	Overath	50.932993	7.288211		Bücherschrank	24 / 7	Taxistand am Bahnhofsplatz		0	0		0		bookcase		openbookcase.org
283	Pattensen-Hüpede	52.242833	9.733008		violette Telefonzelle	24 / 7	Mittelstraße, in der Nähe der Kirche					0		bookcase		openbookcase.org
284	Perl	49.474936	6.386993		offenes Regal	während den Öffnungszeiten	im Perler Rathaus					0		bookcase		openbookcase.org
285	Perleberg	53.076303	11.861962		Bücherkiste	24 / 7	im Winter wird die Kiste abgenommen; am Schuhmarkt					0		bookcase		openbookcase.org
286	Raesfeld (Innogy)	51.7685536316	6.83817386627	Rathausplatz, 46348 Raesfeld	Innogy Bücherschrank (BOKX)	24 / 7	gestiftet von der Innogy SE					0		bookcase	bit.ly/innogycases	openbookcase.org
287	Rahden-Preußisch Ströhen (Innogy)	52.500705	8.649415	Johann-Christoph-Klasing-Straße, 32369 Rahden - Preußisch Ströhen	Innogy Bücherschrank (BOKX)	24 / 7	gestiftet von der Innogy SE					0		bookcase	bit.ly/innogycases	openbookcase.org
288	Rauenberg	49.26718	8.703225			feste Öffnungszeiten	Rathaus, Foyer / http://www.rauenberg.de/2274_DEU_WWW.php					0		bookcase		openbookcase.org
289	Remseck am Neckar, Ortsteil Hochberg	48.887394	9.279772		Telefonzelle	24 / 7	initiiert von der Fachgruppe Bürgerschaftliches Engagement der Stadtverwaltung Remseck am Neckar; an der Bushaltestelle Alexandrinenplatz in der Ortsmitte		0	0		0		bookcase		openbookcase.org
290	Rheinbach	50.626224	6.948508	Hauptstraße 36-46, 53359 Rheinbach	offenes Regal	05.00–23.00 Uhr	Im Raiffeisenhaus - Passage zum Deinzer Platz, auch von dort erreichbar - Parkplatz					0		bookcase		openbookcase.org
291	Riesa	51.30506	13.303587		rote Telefonzelle	24 / 7	Stadtzentrum; auf dem Kinovorplatz					0		bookcase		openbookcase.org
292	Roetgen (Innogy)	50.647801	6.195256	Hauptstr. 55, 52159 Roetgen	Innogy Bücherschrank (BOKX)	24 / 7	gestiftet von der Innogy SE					0		bookcase	bit.ly/innogycases	openbookcase.org
293	Roetgen – Rott (Innogy)	50.6824524831	6.20986640453	Qurinusstraße, 52159 Roetgen-Rott	Innogy Bücherschrank (BOKX)	24 / 7	gestiftet von der Innogy SE					0		bookcase	bit.ly/innogycases	openbookcase.org
294	Rommerskirchen (Innogy)	51.035983	6.695807	Bahnstr. 51, 41569 Rommerskirchen	Innogy Bücherschrank (BOKX)	24 / 7	gestiftet von der Innogy SE					0		bookcase	bit.ly/innogycases	openbookcase.org
295	Rösrath-Hoffnungsthal	50.914168	7.19653		Telefonzelle	24 / 7	ehemalige Telefonzelle aus Bitterfeld in Sachsen-Anhalt; neben dem Bürgerforum am Rathaus		0	0		0		bookcase		openbookcase.org
296	Röthenbach an der Pegnitz	49.483933	11.242806		offener Schrank	24 / 7	Vor dem Mehrgenerationenhaus					0		bookcase		openbookcase.org
297	Saalburg-Ebersdorf	50.482569	11.664422		Regal	täglich geöffnet	in der Lesehalle; Zinzendorfplatz in Ebersdorf					0		bookcase		openbookcase.org
298	Saarbrücken	49.234266	7.000559		Regal	Mo, Di, Do von 10:30 bis 17:00 Uhr und Fr von 10:30 bis 14:00 Uhr	tagsüber während der Bürozeiten sowie abends und sonntags während Veranstaltungen zugänglich; im TiV – Theater im Viertel		0	0		0		bookcase		openbookcase.org
299	Saarbrücken	49.238802	6.998612		Schrank	während der Öffnungszeiten	in der Hafenkneipe Dock IV		0	0		0		bookcase		openbookcase.org
300	Saarbrücken / Filmhaus	49.231812	6.999567		Schrank	abends	im Filmhaus		0	0		0		bookcase		openbookcase.org
301	Saarbrücken / Stadtgalerie	49.232573	6.996904		Spind	ab 7:00	im Innenhof der Stadtgalerie; bis recht spät am Abend, wenn das Kulturcafé schließt		0	0		0		bookcase		openbookcase.org
302	Saarbrücken / Unicampus	49.255664	7.0404		Schrank	während der Öffnungszeiten	im KHG-Café, Campus der Universität		0	0		0		bookcase		openbookcase.org
303	Salzbergen (Innogy)	52.323406	7.347272	Emsstraße, 48499 Salzbergen	Innogy Bücherschrank (BOKX)	24 / 7	gestiftet von der Innogy SE		0	0		0		bookcase	bit.ly/innogycases	openbookcase.org
304	Schloß Holte-Stukenbrock (Innogy)	51.901915	8.61512	Holter Kirchplatz 13, 33758 Schloß Holte-Stukenbrock	Innogy Bücherschrank (BOKX)	24 / 7	gestiftet von der Innogy SE					0		bookcase	bit.ly/innogycases	openbookcase.org
305	Tauschbücherei Schneverdingen	53.118382	9.787463	Am Markt 2, 29640 Schneverdingen	Telefonzelle	Mo.-Fr.: 9:00-18:00 Uhr; Sa.: 9:00-13:00 Uhr			0	0		0		bookcase		openbookcase.org
306	Bücherschrank am alten Rathaus	49.475252786	8.665112257	Heidelberger Straße 17, Marktseite	Regal	24 / 7	Vorwiegend Romane (Konsalik u.a.), Gesetzestexte, ein paar Sachbücher					0		bookcase		openbookcase.org
307	Schwabach	49.3284	11.020335		Büchertausch-Regal		im Foyer der örtlichen Stadtbibliothek.					0		bookcase		openbookcase.org
308	Schwäbisch Gmünd / Spital	48.801903	9.79643		Edelstahlschrank	tagsüber zugänglich.	Erstellt von Anette Beck und Jugendlichen. Spital Innenhof		0	0		0		bookcase		openbookcase.org
309	Sinzig	50.544053	7.249289		Telefonzelle	24 / 7	Aufgestellt vom Verein zur Förderung der Denkmalpflege und vom Heimatmuseum Sinzig; Brunnenplatz Sinzig					0		bookcase		openbookcase.org
310	Soyen	48.108651	12.209487			24 / 7	In der Raiffeisenbank		0	0		0		bookcase		openbookcase.org
311	Spelle / Wöhlehof (Innogy)	52.370754	7.471985	Pastor Batsche Weg 1, 48480 Spelle	Innogy Bücherschrank (BOKX)	24 / 7	gestiftet von der Innogy SE					0		bookcase	bit.ly/innogycases	openbookcase.org
312	Steinfeld (Innogy)	52.5874	8.21716	Marktplatz, 49439 Steinfeld	Innogy Bücherschrank (BOKX)	24 / 7	gestiftet von der Innogy SE		0	0		0		bookcase	bit.ly/innogycases	openbookcase.org
313	Steyerberg	52.568994	9.021572	ca. Lange Str. 22, 31595 Steyerberg	Holzschrank	24 / 7	Erstellt von Steyerberger Bürgern; Einfahrt zum Amtshaus					0		bookcase		openbookcase.org
315	Troisdorf / Bergheim	50.774339	7.091194		brit. Telefonzelle	Mo.-Do. 7-20 Uhr, Fr. Sa. u. So. 7-18 Uhr	Lambertuskirche					0		bookcase		openbookcase.org
316	Troisdorf - Fußgängerzone	50.815199	7.156936	Kölner Str. 62 (vor der Linda-Apotheke), 53840 Troisdorf	Stahlschrank	24 / 7			0	0		0		bookcase		openbookcase.org
317	Twist (Innogy)	52.6469888074	7.09489345551	Flensbergstr. 3-5, 49767 Twist	Innogy Bücherschrank (BOKX)	24 / 7	gestiftet von der Innogy SE					0		bookcase	bit.ly/innogycases	openbookcase.org
318	Überlingen / Grabenstraße	47.767036	9.156494		Edelstahlregal	24 / 7	Gefördert durch Lesezeichen e.V; am Eingang zum Kurpark		1	0		0		bookcase		openbookcase.org
319	Stadthaus Ulm	48.398188	9.99076		Bücherregal	während der Öffnungszeiten	Stadthaus Ulm, Münsterplatz, im OG					0		bookcase		openbookcase.org
320	Vaihingen an der Enz	48.9320295431	8.95714581013	Marktplatz	Holzschrank	24 / 7	Projekt der Vaihinger Aktion Innenstadt (VAI) Schranktüren öffnen nach oben. Das ist etwas ungeschickt.					0		bookcase		openbookcase.org
321	Vettweiß (Innogy)	50.7423689892	6.60163521767	Gereonstraße 14, 52391 Vettweiß	Innogy Bücherschrank (BOKX)	24 / 7	gestiftet von der Innogy SE					0		bookcase	bit.ly/innogycases	openbookcase.org
322	Wachtberg-Adendorf	50.6133954215	7.0559155941	Töpferstraße 17-19, 53343 Wachtberg	Bücherregal	während der Öffnungszeiten des Drehwerks	Drehwerk 17-19					0		bookcase		openbookcase.org
323	Wachtberg-Berkum	50.622083	7.12319		Bücherregal	während der Öffnungszeiten	Einkaufszentrum					0		bookcase		openbookcase.org
324	Wachtberg-Berkum	50.624631	7.132999		Bücherregal	während der Öffnungszeiten	Rathaus					0		bookcase		openbookcase.org
325	Wachtberg-Niederbachem	50.643501	7.178677		Bücherregal	während der Öffnungszeiten	CAP-Markt Niederbachem					0		bookcase		openbookcase.org
326	Wadersloh	51.736397	8.246698		Lackiertes wetterfestes Industriesperrholz mit Aluminiumfront		Geschenk von Handwerkern und Unternehmen aus Wadersloh; Nähe Kirche an der Ecke Wilhelmstraße/Margarethenstraße					0		bookcase		openbookcase.org
327	Werther	52.072562	8.413663		Bücherregal	während der Öffnungszeiten	Bäckerei Pollmeier					0		bookcase		openbookcase.org
328	Wesel (Innogy)	51.6570896821	6.61359786987	Leyensplatz / Höhe Brückstraße, 46483 Wesel	Innogy Bücherschrank (BOKX)	24 / 7	Leyensplatz; gestiftet von der Innogy SE					0		bookcase	bit.ly/innogycases	openbookcase.org
329	Wiesbaden / Schiersteiner Hafen	50.042333	8.19532	Bernhard-Schwarz-Str.11, 65201 Wiesbaden	Metallschrank	24 / 7						0		bookcase		openbookcase.org
330	Wiesbaden - Parkfeld	50.044817	8.230817	Albert-Schweitzer-Allee 49, 65203 Wiesbaden	 	24 / 7						0		bookcase		openbookcase.org
331	Wiesbaden / Westend	50.081482	8.225999	Yorkstraße 12, 65195 Wiesbaden	 	24 / 7			0	0		0		bookcase		openbookcase.org
334	Wiesbaden / Verwaltungsgebäude	50.062866	8.254744	Konradinerallee 11, 65189 Wiesbaden	 	24 / 7	am Eingang des Verwaltungsgebäudes (Gesundheitsamt, Soziale Arbeit)					0		bookcase		openbookcase.org
335	Bücherschrank Schelmengraben	50.069088	8.191176	Hans-Böckler-Straße 5, 65199 Wiesbaden	Holzschrank	24 / 7	 		0	0		0		bookcase		openbookcase.org
336	Wiesenbach	49.359214	8.804327		überdachtes Holzregal	24 / 7	steht auf dem Rathausplatz unter dem Dach der neuen Bühne					0		bookcase		openbookcase.org
337	Wiesloch	49.300479	8.711012			feste Öffnungszeiten	Eine-Welt-Kindergarten					0		bookcase		openbookcase.org
338	Wiesloch Marktplatz	49.294495	8.699058		Stahlregal	24 / 7	Marktplatz; Gestiftet von der Bürgerstiftung Wiesloch		0	0		0		bookcase		openbookcase.org
339	Windeck 	50.796043	7.576642		Stahlschrank	24 / 7	Dreisel					0		bookcase		openbookcase.org
340	Witten	51.44542	7.33663		Holzschrank		Marienplatz; von der Stiftung Mercator aufgestellt; vor Marienkirche und Marienhospital					0		bookcase		openbookcase.org
341	Witten 	51.4365842675	7.33381927013		Bücherregal	während der Öffnungszeiten	nicht barrierefrei; Therapeutikum Witten, Körnerstraße 25 		0	0		0		bookcase		openbookcase.org
342	offener Bücherschrank, Alte Fuhrwerkswaage Wremen	53.649452	8.513886		Bücherregal	24 / 7	barrierefrei					0		bookcase		openbookcase.org
344	Niederdorfelden	50.1945360421	8.80428671837	Burgstraße 5, Niederdorfelden	Vitrine	24 / 7	Am Rathaus	Fr. Kathrin Reuter; Burgstr. 12	0	0		0		bookcase	n.a.	openbookcase.org
345	Nidderau	50.236814	8.864547		Bücherschrank	während der Öffnungszeiten des Straubelhauses	Im Straubelhaus Nidderau,  Straubelgasse 1, Heldenbergen;  barrierefrei, incl. Kinderbücher und kleine Gesellschaftsspiele		0	1		0		bookcase		openbookcase.org
346	Aachen	50.778425	6.081892		Vitrine	24/7	Chico Mendes; Pontstraße 74; barrierefreier Zugang		0	0		0		bookcase		openbookcase.org
347	Aalen / Theater	48.837682	10.092834		Holzschrank mit Glastüren und Beleuchtung	während der Öffnungszeiten der Theaterkasse	Theater der Stadt Aalen		0	0		0		bookcase		openbookcase.org
348	Alfeld (Leine)	51.986186	9.826814		Holzschrank	24/7	Seminarplatz					0		bookcase		openbookcase.org
349	Bonn-Bad Godesberg	50.684048	7.152388		Pavillon, Metall/Glas	nicht durchgehend	City-Terrassen					0		bookcase	www.buergerstiftung-bonn.de/projekte/offene-buecherschraenke/	openbookcase.org
350	Hamburg-Eppendorf	53.611578	10.001295		Little free Library				0	0		0		bookcase		openbookcase.org
351	Barntrup	51.990648	9.116172		Altes Telefonhäuschen	24/7	Offener Bücherschrank Barntrup		0	0		0		bookcase		openbookcase.org
352	Lemgo / Weisenhausplatz	52.027473	8.900923		Alte Telefonzelle	24/7	Offener Bücherschrank Weisenhausplatz		0	0		0		bookcase		openbookcase.org
353	Adelebsen-Erbsen	51.583181	9.805543		Britische Telefonzelle	24/7	Höbelweg					0		bookcase		openbookcase.org
354	Aalen / Hallenbad	48.840452	10.099123		Holzschrank mit Glastüren; Holzregal	während der Öffnungszeiten	Hallenbad Aalen; barrierefrei zugänglich, im Holzregal: Kinder- und Jugendbücher					0		bookcase		openbookcase.org
355	Aalen / Bürgerspital	48.839443	10.093469		Hängeregal	während der Öffnungszeiten	Begegnungsstätte Bürgerspital					0		bookcase		openbookcase.org
356	Aalen / Haus der Jugend	48.83825	10.090935		Wandregal	während der Öffnungszeiten	Kinder- und Jugendbücher					0		bookcase		openbookcase.org
362	Ludwigshafen-Maudach	49.456117	8.3807		Slotti&#39;s Book-Box; zweitüriger Metallschrank	nur bei Tageslicht / Privatgrund!	Bücher, Comics, kleine Gesellschaftsspiele		0	0		0		bookcase		openbookcase.org
363	Coburg Theaterplatz	50.2598	10.9667		Bücherschrank	24 / 7	barrierefrei, Kinderfach	pscoburg@gmx.de	0	0		0		bookcase		openbookcase.org
365	Cloppenburg	52.844168	8.037022	Lange Str. 69, 49661 Cloppenburg	Metallschrank	24 / 7		 Ehrenamtsagentur Cloppenburg	0	0		0		bookcase	www.ehrenamtsagentur.de	openbookcase.org
367	Wieselburg	48.130594	15.138835		Bücherschrank	24 / 7	Eingang zum Schlosspark; Initiiert durch den Verein &#34;Zukunkft Wieselburg&#34;, erstellt vom K		0	0		0		bookcase		openbookcase.org
368	Salzburg-Nonntal	47.79425	13.055889		Telefonzelle	24 / 7	Ulrike-Gschwandtner-Stra		0	0		0		bookcase		openbookcase.org
371	Salzburg-Lehen	47.808833	13.030722		Telefonzelle	24 / 7	Strubergasse 23/H. C.-Artmann-Platz, vor dem Literaturhaus; Initiiert durch Tomas Friedmann vom Literaturhaus Salzburg. Eine sogenannte B		0	0		0		bookcase		openbookcase.org
372	Offener Bücherschrank Brunnengasse/Grundsteingasse	48.209805	16.335764	Ecke Brunnengasse/Grundsteingasse	Wetterfest	24/7	Entwurfs-, Arbeits- und Finanzierungskooperation von Frank Gassner, Irene Prieler und Michael Wildmann		0	0		0		bookcase	www.offener-buecherschrank.at/	openbookcase.org
373	Offener Bücherschrank Zieglergasse/Westbahnstraße	48.201767	16.345071	Ecke Zieglergasse/Westbahnstraße	B	24/7	Finanziert, entworfen und umgesetzt von Frank Gassner		0	0		0		bookcase	www.offener-buecherschrank.at/	openbookcase.org
375	Offener Bücherschrank Heinz-Heger-Park	48.216726	16.343373	Heinz-Heger-Park, 1090 Wien	B	24/7	Ein Schrankelement ist dem Buch &#34;Die Männer mit dem rosa Winkel&#34; von Heinz Heger gewidmet, das dort täglich zur Entnahme eingestellt ist (war?). Ein Projekt von Frank Gassner in Arbeitskooperation mit Fred Gassner, Marcus Gremel, Eldin Kabaklija, Florian Mader, Hanno Mayregger, Irene Prieler, Pascal Tenczhert, Veit Georg Schmidt und Michael Wildmann. Unterstützung: Buchhandlung Löwenherz, grundstein®, werkimpuls und Gruppenpraxis Horst Schalk. Finanzierung: Frank Gassner, Fred Gassner		1	0		0		bookcase	www.offener-buecherschrank.at/	openbookcase.org
376	Esch-sur-Alzette	49.496068	5.985691		Bücherschrank	tägl. 9:00 - 18:00 Uhr	Place de l&#39;Hôtel de Ville; Finanziert, entworfen (Jemp Gillen & Xavier Poos) und umgesetzt von der Gemeindeverwaltung Esch-sur-Alzette		0	0		0		bookcase		openbookcase.org
377	Solothurn	47.205878	7.539883		Bücherschrank	saisonal aufgestellt	bei der Kreuzackerbrücke Saisonal steht ein mobiler Offener Bücherschrank im Schwimmbad Solothurn und an den Solothurner Literaturtagen.		0	0		0		bookcase		openbookcase.org
378	Basel	47.570527	7.577629		Bücherschrank	24 / 7	Voltaplatz an der Ecke Gasstrasse und Elsässerstrasse, im Quartier St. Johann; Entwickelt und realisiert von der Christoph Merian Stiftung und einer Projektgruppe von neun an Literatur interessierten Quartierbewohnerinnen und bewohnern, die sich um die Pflege des Bücherschranks kümmert.		0	0		0		bookcase		openbookcase.org
379	offener Bücherschrank Glissen 	52.424604	8.959221	Glissen 3, 31604 Raddestorf	Telefonzelle	tagsüber geöffnet 		Profil Glissen-Radd  unter www.bookcrossing.com 	1	0		0		bookcase		openbookcase.org
380	Rodenbach / Bahnhof	50.14728	9.01326		Bücherschrank	24 / 7			0	0		0	--	bookcase		openbookcase.org
382	Aachen / Passstraße	50.78347	6.098134		Bücherschrank	24 / 7	gegenüber dem Blumenladen &#34;Blütee&#34; auf einem kleinen Platz. 		0	0		0		bookcase		openbookcase.org
383	Aachen / Bahnhofsvision	50.72965	6.177139		Bücherschrank	24 / 7	hinter der Gaststätte &#34;Bahnhofsvision&#34; am Vennbahnweg (Radweg)		0	0		0		bookcase		openbookcase.org
385	Öffentlicher Bücherschrank, Mürwik	54.81527	9.47512		öffentlicher Bücherschrank	Außen- stets zugänglich	Initiiert vom Lions Club		1	0		0		bookcase		openbookcase.org
386	BücherboXX Fabrik Osloer Str. 	52.55598	13.386004		Telefonzelle	24 / 7		Osloer Str. 12, 13359 Berlin-Gesundbrunnen	1	0		0		bookcase		openbookcase.org
387	Bücherbaum Koloniestr. 23	52.558208	13.379229		Bücherbaum	24 / 7		Koloniestr. 23, 13359 Berlin-Gesundbrunnen	1	0		0		bookcase		openbookcase.org
389	BiblioboXX Berlin, dt.-frz. BücherboXX	52.558358	13.338588		Telefonzelle	24 / 7	U6 Bfh. Rehberge	Müllerstr. 74, 13349 Berlin-Wedding	1	0		0		bookcase		openbookcase.org
390	BücherboXX Földerichplatz, Berlin-Wilhelmstadt	52.52097	13.19392		Telefonzelle	24 / 7		Adamstr. / Földerichplatz	1	0		0		bookcase		openbookcase.org
392	Bücherschrank St.Hubert	51.383958	6.452075			steht draußen, immer zugänglich (aber im Dunkeln kann man schlecht sehen)			0	0		0		bookcase		openbookcase.org
393	Villa Libris, Berlin-Wilmersdorf	52.473285	13.314207		Telefonzelle	24 / 7	U3 Bhf. Rüdesheimer Platz	Rüdesheimer Str. / Eberbacher Str.	1	0		0		bookcase		openbookcase.org
394	OBCZ Café Kuchen, Berlin-Friedenau	52.47172	13.325359		Regal, Offizielle Bookcrossing Zone	Mo-Fr 10-18 Uhr, So 14-18 Uhr	Nahe U9 Bfh. Friedrich-Wilhelm-Platz	Wiesbadener Str. 6, 12161 Belin	1	0		0		bookcase		openbookcase.org
397	Regal der verbrannten Bücher	52.51641	13.393246		Regal	Mo-Fr ca. 08-22 Uhr	Im Vorraum des Foyers der juristischen Fakultät der Humboldt-Universität	Bebelplatz 1, 10117 Berlin-Mitte	1	0		0		bookcase		openbookcase.org
400	Bushof Neviges	51.31251	7.08941		Telefonzellen		Ausgemusterte Telefonzellen aus Frankreich und Großbritannien http://www.sos-team-ev.de/lesbar.html		1	0		0		bookcase		openbookcase.org
402	Regal Humboldt-Universität,  Hauptgebäude	52.518088	13.393729		Regal	Mo-Fr ca. 8-22 Uhr	Rechts im Foyer des Hauptgebäudes der HU	Unter den Linden 6, 10117 Berlin-Mitte	1	0		0		bookcase		openbookcase.org
405	Radevormwald (Innogy)	51.20303	7.35728	Kaiserstraße	Innogy Bücherschrank (BOKX)	24 / 7	gestiftet von der Innogy SE		0	0		0		bookcase		openbookcase.org
406	Bücherbaum Berlin-Grünau	52.415633	13.582685		Rotbuche	24 / 7	Park gegenüber vom Café Liebig	Regattastr., Berlin-Grünau	1	0		0		bookcase		openbookcase.org
407	Bücherzelle Eichwalde	52.37028	13.617704		Telefonzelle	24 / 7	Am Vorplatz zum S-Bahnhof		1	0		0		bookcase		openbookcase.org
409	Hagen Johanniskirche	51.355738	7.477223		Bücherschrank				0	0		0		bookcase		openbookcase.org
410	OBCZ Café Scherbe	47.074258	15.432588	Stockergasse 2, 8020 Graz	Bücherbrett	Montag bis Freitag 10-01 Uhr; Sonntag: 10-00 Uhr		http://www.scherbe.com	1	0		0		bookcase		openbookcase.org
411	Bücherbaum Bebenhausen	48.55823	9.049811		Ausgesägter Baumstamm	24/7	Eigentlich eine schöne Stelle, an der viele Spaziergänger und Radfahrer vorbeikommen. Leider ist der Baum aber nicht wasserdicht und steht noch dazu in einem schattigen Nebelloch, wo es stets feucht ist und nie trocknet. Damit werden die Bücher hier in kürzester Zeit klamm und gehen kaputt, selbst wenn es nicht regnet - wenn es regnet, geht es nur noch schneller. Abgesehen vielleicht von stabilen trockenen Hochsommerwetterlagen muss damit von der Nutzung dieses Schranks abgeraten werden.		0	0		0		bookcase		openbookcase.org
413	Bücherbaum Goldersbachklause	48.540833	9.077383		Ausgesägter Baumstamm	24/7	Leider nicht ganz wasserdicht, aber deutlich besser als der baugleiche Baum bei Bebenhausen. 		0	0		0		bookcase		openbookcase.org
416	Bücherbaum Heuberger Tor	48.549424	9.034734		Ausgesägter Baumstamm	24/7	Leider nicht ganz wasserdicht, aber deutlich besser als der baugleiche Bücherbaum unten im Goldersbachtal. 		0	0		0		bookcase		openbookcase.org
420	Bücherbäume Pfullingen Marktplatz	48.465899	9.22582		Mehrere ausgesägte Baumstämme	24/7	insgesamt 9 relativ kleine Fächer		0	0		0		bookcase		openbookcase.org
425	Offizielle BookCrossing- Zone (OBCZ) Roter Hof	54.781858	9.435196		OBCZ, Regal im Eingangsbereich eines Restaurants	täglich 10-22 Uhr	Hier kannst Du BookCrossing-Bücher finden. Aber Du kannst gern auch Nicht-Bookcrossing-Bücher im Tausch dort lassen. Hier finden auch die Flensburger BookCrosser-Treffen statt http://www.bookcrossing.com/mybookshelf/ObczFlensburg 		1	1		0		bookcase		openbookcase.org
426	Offizielle BookCrossing- Zone (OBCZ) Ottos Enkel	54.320413	10.133632		Regale im Cafe	Mo. - Sa. 9.00 - 19.00 Uhr Sa. 8.30 - 18.30 Uhr So. nur an Flohmarktsonntagen 8.30 - 18.00 Uhr	Hier finden auch die Kieler BookCrosser-Treffen statt http://www.bookcrossing.com/mybookshelf/Obcz-kiel		1	1		0		bookcase		openbookcase.org
427	Bücherregal Eiscafé Kibo	52.551926	13.341286		Regal	täglich 10:00-21:30 Uhr		Transvaalstr. 13, 13351 Berlin-Wedding	1	0		0		bookcase		openbookcase.org
429	Bücherwurm (Marktplatz Kehl)	48.572847	7.810774		Zwei schmale Schränke	24/7			0	0		0		bookcase		openbookcase.org
430	Freudenstädter Bücherbaum	48.460011	8.413701	Lauterbadstr. 5, 72250 Freudenstadt	Schrank in ausgesägtem Baumstamm. Relativ klein.	während der Öffnungszeiten des Kurparks / Kurhauses			1	0		0		bookcase		openbookcase.org
431	Reutlingen-Rommelsbach, Christian-Morgenstern-Schule	48.526604	9.203607		Schrank	24/7	Der Bücherschrank steht jederzeit frei zugänglich an der Straße vor der Schule.		0	0		0		bookcase		openbookcase.org
434	Erlöserkirche Mainz-Kastel	50.007867	8.286905			24/7			0	0		0		bookcase		openbookcase.org
435	Stettiner Straße Hochheim am Main	50.011835	8.343987			24/7	Im Vorgarten eines Reihenhauses		1	0		0		bookcase		openbookcase.org
436	Troisdorf - Rathaus	50.817363	7.1481	Kölner Str. 176, 53840 Troisdorf	Regal		im Eingangsbereich		0	0		0		bookcase		openbookcase.org
437	OBCZ Café Mundial	51.358192	7.47706	Potthofstr. 22, 58095 Hagen	Regal im Café	Montag bis Freitag 10-22 Uhr; Samstag 10-18 Uhr		http://www.allerwelthaus.org/cafe/cafe.html	1	0		0		bookcase		openbookcase.org
438	Bücherregal im ResOtto / Berlin-Wedding	52.542081	13.355727	Sprengelstr. 12, 13353 Berlin-Wedding	Regal	Mo-Sa ab 11 Uhr & S ab 16 Uhr			1	0		1		bookcase		openbookcase.org
440	E-Werk	49.600719	11.001925	Fuchsenwiese 1, 91054 Erlangen	Bücherschrank im Freien	24 h / 7	barrierefrei		0	0		0	Wegen Baumaßnahmen vorrübergehend geschlossen. Schrank steht noch da, ist aber eingeschalt, steht im gesperrten Bereich und kann somit nicht genutzt werden.	bookcase		openbookcase.org
446	Bücherbaum / Berlin-Karlshorst	52.481918	13.526648		Bücherbaum	24 / 7	Nahe S-Bahnhof Karlshorst	Ehrenfelsstr. / Theaterplatz	1	0		0		bookcase		openbookcase.org
448	HU Mensa OASE / Berlin-Adlershof	52.429399	13.530071		Regal	Mo-Fr ca. 08-16 Uhr	Humboldt Universität, Johann-von-Neumann-Haus 1.OG	Rudower Chaussee 25, 12489 Berlin-Adlershof	1	0		0		bookcase		openbookcase.org
450	Graz - PH Steiermark	47.082297	15.434348	Hasnerplatz 12 (im Innenhof), 8010 Graz	Telefonzelle				0	0		0		bookcase		openbookcase.org
452	Praxis Dr. med J. Veidt	50.0958139898	8.75563144684	Starkenburgring 66 (Dr. Erich Rebentisch-Zentrum)	Regal	nur während der Sprechzeiten (vormittags) zugänglich	im Wartezimmer		0	0		0		bookcase		openbookcase.org
453	OBCZ Park-Café,  Berlin-Mariendorf	52.4406333	13.3963918537	Rixdorfer Straße 165 / Britzer Str., 12109 Berlin-Mariendorf	Regal	Mo-Sa 9-24 Uhr, So 10-24 Uhr	U6 Alt-Mariendorf,  Bus 181, 277		1	0		1		bookcase		openbookcase.org
454	OBCZ Mokkafee, Berlin-Köpenick	52.444992	13.575711	Grünstr. 21, 12555 Berlin-Köpenick	Regal	täglich 8-19 Uhr	S3 Bhf. Köpenick dann Tram		1	0		0		bookcase	www.mokkafee.de/	openbookcase.org
455	Gelsenkirchen / Gelsendienste	51.562275	7.072148	Adenauerallee 115, 45891 Gelsenkirchen	ehemaliger Stromkasten	24 / 7			0	0		0		bookcase		openbookcase.org
456	Gelsenkirchen / &#34;Bonni&#34;	51.609632	7.054328	Eppmannsweg Ecke Bussmannstr., 45896 Gelsenkirchen	Bücherschrank	24 / 7	öffentlicher Bücherschrank der Mercator-Stiftung am Dietrich-Bonhoeffer-Haus (&#34;Bonni&#34;)		0	0		0		bookcase		openbookcase.org
457	OBCZ Patmos, Berlin-Steglitz	52.465442	13.316696	Gritznerstr. 18-20, 12163 Berlin	Regal			evgl. Patmos Gemeinde	1	0		0		bookcase		openbookcase.org
458	Bücherbaum Brodowin	52.910067	13.960329		Baumstamm	24 / 7			0	0		0		bookcase		openbookcase.org
459	Moabiter Bücherbank, Berlin-Moabit	52.52805	13.338733		Bücherbank				0	0		0		bookcase		openbookcase.org
460	Moabiter Bücherbank, Berlin-Moabit / Otto-Spielplatz	52.52536	13.336276		Bücherbank				0	0		0		bookcase		openbookcase.org
461	Moabiter Bücherbank, Berlin-Moabit	52.521626	13.336383						0	0		0		bookcase		openbookcase.org
462	Moabiter Bücherbank, Berlin-Moabit	52.524016	13.334527						1	0		0		bookcase		openbookcase.org
463	Moabiter Bücherbank, Berlin-Moabit / Waschsalon	52.525008	13.32986	Gotzkowskystr	Bücherbank				1	0		0		bookcase		openbookcase.org
464	Moabiter Bücherbank, Berlin-Moabit	52.528121	13.326974						0	0		0		bookcase		openbookcase.org
465	Moabiter Bücherbank, Berlin-Moabit	52.531659	13.326234						0	0		0		bookcase		openbookcase.org
466	Moabiter Bücherbank, Berlin-Moabit	52.532299	13.331577						1	0		0		bookcase		openbookcase.org
467	SOS-Kinderdorf, Berlin-Moabit	52.531352	13.332092	Waldstr. 23-24, 10551 Berlin-Moabit	Regal	Mo-Do 9-18 Uhr, Fr 9-15 Uhr	Im 1. OG		1	0		0		bookcase		openbookcase.org
468	Moabiter Bücherbank, Berlin-Moabit	52.530543	13.336512		Bücherbank				0	0		0		bookcase		openbookcase.org
469	Moabiter Bücherbank, Berlin-Moabit	52.533297	13.360094		Bücherbank				0	0		0		bookcase		openbookcase.org
470	Frankfurt / Englisches Theater	50.109326	8.671547	Gallusanlage 7, 60329 Frankfurt Main	Bücherschrank	24 / 7	erster Bücherschrank mit ausschließlich englischer Literatur; entworfen vom Kölner Architekten Hans-Jürgen Greve		0	0		0		bookcase		openbookcase.org
471	Würzburg / &#34;Gehrings&#34;	49.7902761433	9.9311953783	Neubaustraße 24, 97070 Würzburg, Altstadt	Bücherregal	Zu den Öffnungszeiten des &#34;Gehrings&#34;			0	0		0		bookcase		openbookcase.org
472	Uttenreuth	49.5969707618	11.072062254	91080 Uttenreuth, Erlanger Straße, schräg gegenüber Hausnr. 13	Regal im ehemaligen Bushäuschen	24 / 7	Initiiert durch Erika Hladky (Bücherschrankpatin), Träger Gemeinde Uttenreuth		0	0		0		bookcase		openbookcase.org
473	Pondorf (Altmannstein)	48.9435872	11.563024	Windener Straße, Pondorf	Bushäuschen	24 / 7	Initiiert und aufgebaut durch Gerhard Strobel, Pondorf		0	0		0		bookcase		openbookcase.org
474	Fulda / Universitätsplatz	50.55205	9.678252	Universitätsplatz / Ecke Schulstraße	Telefonzelle				0	0		0		bookcase		openbookcase.org
475	Hildesheim / Marienburger Platz	52.133939	9.973392	Marienburger Platz, 31141 Hildesheim	Bücherschrank	24 / 7			0	0		0		bookcase		openbookcase.org
476	Lesezeichen Salbke	52.075471	11.668846	Alt Salbke 75, 39122 Magdeburg	Lesegebäude	Mo. 14-16 Uhr, Di 17-19 Uhr, Mi 10-12 Uhr	Weitere Informationen gibt es unter http://www.lesezeichen-salbke.de/ oder in der deutschen Wikipedia: http://de.wikipedia.org/wiki/Lesezeichen_Salbke	Sabine Eling-Saalmann / sabine@eling-saalmann.com / (0391)4009745	0	0		1	Vandalismus	bookcase		openbookcase.org
477	Duisburg / Meiderich	51.47304	6.787007	die pflegezentrale, Bahnhofstr. 20-22, 47138 Duisburg	Bücherregal	zu den Öffnungszeiten der Pflegezentrale		info@diepflegezentrale-du.de	0	0		0		bookcase	www.buergerstiftung-duisburg.de/	openbookcase.org
478	Hamborn / Altmarkt	51.490546	6.772645	Altmarkt, Hamborn	Bücherzelle	24 / 7	gebaut von der GfB Duisburg		0	0		0		bookcase	www.buergerstiftung-duisburg.de/	openbookcase.org
479	Duisburg / Sozialzentrum St. Peter	51.421386	6.752273	Brückenstraße 28-30, 47053 Duisburg	Bücherregal	zu den Öffnungszeiten des Sozialzentrums		Pfarrgemeinderat der Katholischen Kirchengemeinde Liebfrauen (0203)28104-24	0	0		0		bookcase	www.buergerstiftung-duisburg.de/	openbookcase.org
480	Bad Soden / Taunus	50.143679	8.501807	Adlerplatz, Kreuzung Königsteiner Straße/Kronberger Straße	Bücherschrank / Cor-Ten-Stahl	24 / 7	Projekt in Trägerschaft der Nele-Neuhaus-Stiftung		0	0		0		bookcase		openbookcase.org
481	Gummersbach / Halle32	51.02511	7.563678	Halle 32, Steinmüllerallee 10, 51643 Gummersbach	Bücherregal	zu den Öffnungszeiten der Halle32	der Schrank befindet sich im Südfoyer der Halle32	Kulturbetrieb der Stadt Gummersbach AöR (02261)920680	0	0		0		bookcase		openbookcase.org
482	Erfurt / &#34;WIESELeih&#34;	50.978341	11.027084	Allerheiligenstraße 20/21, 99084 Erfurt	Bücherschrank	Mo-Fr. 09:00 - 18:00 Uhr	Bücherschrank mit Spieltisch; Im Zuge eines Hochschulstraßenfestes eröffnet	WIESEL (0361)24477128;  www.wiesel-erfurt.de	0	0		0		bookcase		openbookcase.org
483	Insul	50.439933	6.914905	Dorfgemeinschaftshaus	Bücherschrank	24 / 7			0	0		0		bookcase		openbookcase.org
484	Extertal-Bösingfeld	52.067793	9.126843	Rathausplatz Bösingfeld	Bücherschrank	24 / 7			0	0		0		bookcase		openbookcase.org
485	Kunst&Kulturwagen Frankfurt (Oder)	52.3421302932	14.5542240143	Große Scharrnstraße 17a, Frankfurt (Oder)	umgebauter Wohnwagen	tägl. 11-16 (mindestens)	Seit 2015 umgezogen in den Ehrenhof der Europa-Universiät Viadrina	Studierendenmeile e.V.; studierendenmeile@europa-uni.de	0	0		0		bookcase		openbookcase.org
486	Regal Feinkost 27	53.794422	12.173356	Kröchenhsgen 27, 18273 Güstrow	Regal				1	0		0		bookcase		openbookcase.org
487	OBCZ Café in der KMG-Klinik	53.811307	12.199266	Friedrich-Trendelenburg-Allee 1, 18273 Güstrow	Regal				1	0		0		bookcase		openbookcase.org
488	OBCZ Hofladen Kloster Rühn	53.823747	11.937847	Klosterhof 1, 18246 Rühn bei Bützow	Regal				1	0		0		bookcase		openbookcase.org
489	OBCZ PfarreBernitt	53.903491	11.887164	Langestr. 54, 18249 Bernitt	Regal				1	0		0		bookcase		openbookcase.org
490	Rathaus Minden	52.288953	8.918074	Kleiner Domhof 17, 32423 Minden	englische Telefonzelle	Mo-Mi. 06:30-18:00 Uhr, Do. 06:30-18:30, Fr. 06:30-13 Uhr		Rathaus Minden	0	0		1	aus unbekanntem Grund entfernt (Stand 21.11.19)	bookcase		openbookcase.org
491	Hanau &#34;Brückenkopf&#34;	50.140503	8.923495	Wilhelmstraße 15a, 63450 Hanau	Bücherschrank	tägl. ab 18:00 Uhr		http://www.brueckenkopf-hanau.de; +49 06181/15789	0	0		0		bookcase		openbookcase.org
492	Hanau / Quartiersplatz	50.130191	8.917149	Quatiersplatz in der Gärtnerstraße/Ecke Karl-Röttelberg-Straße, Hanau	Bücherschrank	24 / 7		Stadtteilladen Südlicht; +49 6181/5071217	0	0		0		bookcase		openbookcase.org
493	Hanau / An der &#34;Rosenau&#34;	50.13997	8.902611	An der &#34;Rosenau&#34;, Frankfurter Str. Ecke Gustav-Hoch-Str., Hanau	britische Telefonzelle	24 / 7			0	0		0		bookcase		openbookcase.org
494	Eltville am Rhein	50.012495	8.061923	Pfarrgasse, Eltville am Rhein	Bücherschrank	24 / 7			0	0		0		bookcase		openbookcase.org
495	Bad Homburg v.d.H / englische Kirche	50.2253446884	8.62230420113	Ferdinandsplatz, englische Kirche, Bad Homburg v.d.H.	Bücherschrank	Di-Fr 16-19, Sa/So 14-18 Uhr		Kulturzentrum Englische Kirche: +49 (6172) 100-4114 	0	0		0		bookcase		openbookcase.org
496	Bad Homburg / Stadtladen	50.223968	8.6225	Rathausplatz 1, 61348 Bad Homburg v.d.Höhe	Bücherschrank	Mo, Di und Do 8:00-17:00 Uhr, Mi 8:00-18:00 Uhr, Fr 8:00-12:00 Uhr		Magistrat der Stadt Bad Homburg v.d.Höhe: +49 (6172) 100-3101	0	0		0		bookcase		openbookcase.org
497	OBCZ Bauhaus Café-Bistro	51.839271	12.227172	Bistro im Bauhaus Dessau, Gropiusstr. 68	Fensterboard	Mo-Sa 08:00-24:00, So 08:00-18:00 Uhr			1	0		0		bookcase	www.bauhaus-dessau.de/cafe-bistro-im-bauhaus.html	openbookcase.org
498	OBCZ Café Sibylle	52.517174	13.437009	Karl-Marx-Allee 72, 10243 Berlin-Friedrichshain	Bücherboard				1	0		1		bookcase		openbookcase.org
499	OBCZ Priscilla	52.517474	13.443414	Karl-Marx-Allee 103, 10243 Berlin-Friedrichshain	Buchregal				0	0		1		bookcase		openbookcase.org
500	Bücherkiste Oberelchingen	48.45155	10.08692		Stromkasten		Bereitgestellt vom Lions Club Elchingen		0	0		0		bookcase		openbookcase.org
501	Bücherkiste Kelternweg	48.41318	9.95378		Stromkasten				0	0		0		bookcase		openbookcase.org
502	Bücherkiste Wiblingen	48.36045	9.98857		Stromkasten				0	0		0		bookcase		openbookcase.org
503	Celle / Kirchstraße	52.6196340836	10.0692594051	Kirchstraße 49, 29221 Celle	Bücherschrank	24 / 7	Vor der Kirche Neuenhäusen		0	0		0		bookcase		openbookcase.org
504	Höhenhaus	50.982266	7.025336	Berliner Straße 378a, Höhenhaus	Bücherschrank	24 / 7	barrierefrei		0	0		0		bookcase		openbookcase.org
505	Knielingen	49.030401	8.341024	Elsässer Platz, Knielingen	Bücherschrank	24 / 7			0	0		0		bookcase		openbookcase.org
506	Alfter	50.7465951366	7.03625500202		Bücherschrank	24 / 7			0	0		0		bookcase	www.buergerstiftung-bonn.de/projekte/offene-buecherschraenke/	openbookcase.org
507	Alfter / Am Herrenwingert	50.737732	7.010294		Bücherschrank	24 / 7			0	0		0		bookcase		openbookcase.org
508	Rheinfelden (Baden)	47.563688	7.787298	Hardstraße	Telefonzelle	24 / 7			0	0		0		bookcase		openbookcase.org
509	Bad Säckingen	47.554327	7.949083	Rudolf-Eberle-Platz	Bücherschrank	24 / 7			0	0		1	Wurde von Unbekannten angezündet und ist abgebrannt:  http://bit.ly/1FZfc5F	bookcase		openbookcase.org
510	Nieder-Klingen	49.817507	8.89122	Am Hollergraben, Nieder-Klingen	Bücherschrank	24 / 7			0	0		0		bookcase		openbookcase.org
511	Evangelisches Jugendzentrum	49.973326	9.151236	Alexandrastraße 5, 63739 Aschaffenburg	OBCZ, Bücherregal	 Dienstag 13 – 18 Uhr, Donnerstag 13 – 21 Uhr, Freitag 14:30 – 21:00 Uhr	Im Eingangsbereich (Bistro) auf der rechten Seite	bufdi@juz-ab.de	1	1		0		bookcase		openbookcase.org
512	JUKUZ Aschaffenburg	49.971253	9.147872	Kirchhofweg 2, 63739 Aschaffenburg	Bücherregal	24/7	Im Hof an der Innenseite der Mauer - Schwerpunkt sind Kinder- und Jugendbücher - Für Anfrage bitte an die Mitarbeiterinnen des Café ABdate wenden, Tel. 06021-218761	Jugendinformation@cafe-abdate.de	0	0		0		bookcase	www.cafe-abdate.de	openbookcase.org
513	Katakombe	49.977249	9.143613	Treibgasse 26, 63739 Aschaffenburg	OBCZ, Bücherregal	Mittwoch bis Freitag 14:00- 18:00 Uhr			1	0		0		bookcase		openbookcase.org
514	Markt Hellerau	51.109864	13.761004		Telefonzelle	immer			0	0		0		bookcase		openbookcase.org
515	Fulda / Spitzgedackelt	50.551624	9.674977	Öffentlicher Bücherschrank im Laden	Fa. Spitzgedackelt				0	0		0		bookcase		openbookcase.org
516	Fulda / Das Landhaus	50.550373	9.675294	Öffentlicher Bücherschrank					0	0		0		bookcase		openbookcase.org
517	Sendenhorst	51.843806	7.826667	Weststraße 5, Sendenhorst	Bücherschrank	24 / 7	aufgestellt durch die Stadt Sendenhorst, betreut und mitinitiiert durch ehrenamtliche Bücherpaten; barrierefrei		0	0		0		bookcase		openbookcase.org
518	Langenhagen / CCL, Westpassage	52.4396795	9.7386211	CCL, Westpassage, Langenhagen	Bücherschrank				0	0		0		bookcase		openbookcase.org
519	Drolshagen	51.023902	7.77718	Marktplatz	Bücherschrank	24 / 7	Gebaut von Gerhard Reissaus und aufgestellt vom Bauhof der Stadt Drolshagen		0	0		0		bookcase		openbookcase.org
520	Olpe	51.024037	7.846537	Kurfürst-Heinrich-Str. 34, Olpe	Bücherschrank	zu den Öffnungszeiten der VHS	im Foyer des Weiterbildungszentrums		0	0		0		bookcase		openbookcase.org
521	Köln - Historisches Archiv	50.934687	6.962151	Heumarkt 14, 50667 Köln	offener Bücherschrank (Turm aus alten Archivkartons)	während der Öffnungszeiten des Gebäudes (Mo. bis Fr. ca. 7 bis 20 Uhr)			0	0		0		bookcase		openbookcase.org
522	Hallenbad Freiburg im Breisgau-Lehen	48.017706	7.804587	Lindenstraße 4, Lehen	Holzregal	zu den Öffnungszeiten des Hallenbads	Öffnungszeiten: http://www.badeninfreiburg.de/oeffnungszeiten-der-freiburger-baeder		0	0		0		bookcase		openbookcase.org
525	Bücherzelle auf dem Marktplatz	52.680682	9.908461	Marktplatz, Poststraße, 29308 Winsen (Aller)	alte Telefonzelle	24/7			0	0		0		bookcase		openbookcase.org
526	Oerlinghausen	51.959606	8.658074	Simonsplatz, Oerlinghausen	Bücherschrank	24 / 7			0	0		0		bookcase		openbookcase.org
527	Bielefeld / Bültmannshof	52.035898	8.5058	Am Bültmannshof, Bielefeld	Bücherschrank	24 / 7			0	0		0		bookcase		openbookcase.org
528	Garbsen / Planetencenter	52.4186	9.5964	Planetenring 25, Garbsen	Holzschrank	24 / 7			0	0		0		bookcase		openbookcase.org
529	Garbsen / Nachbarschaftsladen	52.440338	9.613005	Auf dem Kronsberg, Garbsen	Holzschrank	24 / 7			0	0		0		bookcase		openbookcase.org
530	Achim	53.011329	9.032653	Vendstraße 2, Achim	Bücherschrank	24 / 7	vor dem Angelgeschäft		0	0		0		bookcase		openbookcase.org
531	Aurich (Ostfriesland)	53.4690959	7.48322147528	Osterstraße 6, Aurich	Bücherschrank	zu den Öffnungszeiten der Bäckerei	neben der Oldenburgischen Landesbank, gehört dem Tauschring		0	0		0		bookcase		openbookcase.org
532	Köln-Mülheim / Bürgerpark	50.9720216759	7.01014637947	Berliner Straße 77, Köln-Mülheim	Bücherschrank	24 / 7	im Park neben der &#34;MüTZe&#34;		0	0		0		bookcase		openbookcase.org
533	Bad Kissingen	50.2037692	10.0767944	Hemmerichstraße 15, Bad Kissingen	Bücherschrank	08:00 - 15:00 Uhr	gegenüber der Zahnarztpraxis Dr. Wahler & Kollegen		0	0		0		bookcase		openbookcase.org
534	Wildemann	51.828013	10.283312		Drehständer	zu den Öffnungszeiten der Kurverwaltung		Kurverwaltung Wildemann (05323/6111)	0	0		0		bookcase		openbookcase.org
535	Walsrode	52.865199	9.589834	Grünstraße, Walsrode	Bücherschrank	zu den Öffnungszeiten des Kindergartens			0	0		0		bookcase		openbookcase.org
536	Viersen	51.244711	6.403382	Bachstraße 60, Viersen	Bücherschrank	24 / 7	am Kunst- und Kulturhaus in Viersen		0	0		0		bookcase		openbookcase.org
537	Untermünkheim	49.152899	9.733978	Ortsmitte	Bücherschrank	24 / 7			0	0		0		bookcase		openbookcase.org
538	Dielingen	52.443119	8.345985	Am Thie 5, Dielingen	Bücherstube	Mo. 16-18 Uhr, Do. 10-12 Uhr			0	0		0		bookcase		openbookcase.org
539	Solingen / Botanischer Garten	51.184502	7.0647	botanischer Garten, Solingen	Bücherschrank	24 / 7			0	0		0		bookcase		openbookcase.org
540	Roth	49.2490173	11.0910961212	Willy-Supf-Platz 2, Roth	Bücherschrank	?			0	0		0		bookcase		openbookcase.org
541	Rotenburg/Wümme	53.1099152729	9.40186142921	Große Straße 6, Rotenburg/Wümme	Bücherschrank	24 / 7			0	0		0		bookcase		openbookcase.org
542	Ronnenberg / Benthe	52.338315	9.627363	Am Steinweg, Benthe	Bücherschrank	24 / 7	nähe Dorfplatz		0	0		0		bookcase		openbookcase.org
543	Bücherbaum Bad Harzburg	51.8752788464	10.5612409115	Herzog-Wilhelm-Straße 97, Bad Harzburg	Bücherbaum	24 / 7	Direkt beim Plumbohms.		0	0		0		bookcase		openbookcase.org
544	Bad Krozingen	47.916996383	7.69778430462	Schlatter Str. 7, Bad Krozingen	Bücherschrank	24 / 7			0	0		0		bookcase		openbookcase.org
545	Bad Krozingen / Kurhaus	47.919783	7.69364		Bücherschrank	24 / 7			0	0		0		bookcase		openbookcase.org
546	Bad Krozingen / Josefshaus	47.9147205285	7.69850850105	Basler Str. 1, Bad Krozingen	Bücherschrank	24 / 7			0	0		0		bookcase		openbookcase.org
547	Staufen / Struve-Passage	47.8822	7.729893	Im Grün 15, Staufen	Bücherschrank	24 / 7			0	0		0		bookcase		openbookcase.org
548	Bad Zwischenahn	53.18475	7.99855	Lange Straße, Bad Zwischenahn	Telefonzelle	tägl. 10:00 - 18:00 Uhr			0	0		0		bookcase		openbookcase.org
549	Bergisch Gladbach / VHS	50.992295	7.132753	Buchmühlenstraße 12, Bergisch Gladbach	Bücherschrank	?	in der Eingangshalle der VHS		0	0		0		bookcase		openbookcase.org
552	Bonn - Duisdorf	50.714032	7.046053		Bücherschrank				0	0		0		bookcase		openbookcase.org
553	Bottrop	51.534811	6.889793	Im Fuhlenbrock, Bottrop	Bücherschrank	24 / 7			0	0		0		bookcase		openbookcase.org
554	Siegburg	50.793234	7.207018	Kaiser-Wilhelm-Platz 1, Siegburg	Bücherschrank	zu den Öffnungszeiten des Kreishauses			0	0		0		bookcase		openbookcase.org
555	Bondi Beach / Australia	-33.890791	151.277412	Bondi Beach, Sydney, Australia	IKEA Regale / IKEA cabinets	24 / 7			0	0		0		bookcase		openbookcase.org
556	Schwäbisch Hall / Waldfriedhof	49.110287	9.695429	Waldfriedhof, Schwäbisch Hall	Bücherschrank	24 / 7			0	0		0		bookcase		openbookcase.org
557	Salzburg / Künstlerhaus	47.7968857257	13.0542550562	Künstlerhausgasse, Salzburg	Bücherschrank	24 / 7	direkt vor dem Künstlerhaus		0	0		0		bookcase		openbookcase.org
559	Rheine / Rodde	52.280575	7.527054	Fernrodder Straße, Rodde	Bücherschrank	24 / 7	nahe der Kirche (bei den Containern)		0	0		0		bookcase		openbookcase.org
560	Ratingen	51.297272	6.849297	Marktplatz, Ratingen	Bücherschrank	24 / 7			0	0		0		bookcase		openbookcase.org
561	Pewsum	53.42895	7.10462	Adolf-Köppe-Straße, Pewsum	alte Telefonzelle	24 / 7			0	0		0		bookcase		openbookcase.org
563	Bücherschrank im Second Handy Laden 	48.181135542	11.571264267	Georgenschwaigstraße 27, 80807 München	Bücherschrank im Second Handy Laden	Mo-Fr: 10.00 - 13.00 Uhr; Mi + Do: 15.00 - 18.00 Uhr		Tel.: 089 35744986	0	0		0		bookcase		openbookcase.org
564	Seevetal-Maschen	53.3949176	10.0388271	Schulstr. 55-57, Maschen	Bücherschrank	24 / 7	vor dem Dorfhaus		0	0		0		bookcase		openbookcase.org
565	Erfurt / Kita Fuchs-und-Elster	50.9949625782	11.0277199745	Wendenstraße 19, 99086 Erfurt	Bücherregal	Mo-Fr. 6.00 – 20.00 Uhr		Kita: 0361/7312395	0	0		0		bookcase		openbookcase.org
566	Offener Bücherschrank Oberderdingen	49.0602009973	8.80231261253	Hintere Gasse Ecke Obere Gasse, Oberderdingen	Umgebaute Telefonzelle, rot lackiert	24/7			0	0		0		bookcase		openbookcase.org
567	Kulturscheune Moritzhof	52.1557122415	11.6325581074	Moritzplatz 1, 39124 Magdeburg	Bücherschrank	zu den Öffnungszeiten der Kulturscheune		http://moritzhof-magdeburg.de/impressum	0	0		0		bookcase		openbookcase.org
568	Leverkusen / Neulandpark	51.037454	6.977383	Nobelstraße 91, Leverkusen	Bücherschrank	24 / 7	Nähe Haupteingang		0	0		0		bookcase		openbookcase.org
569	Leverkusen / Bruno-Wiefel-Haus	51.061445	7.003669	Kölner Str. 100, Leverkusen	Bücherschrank	zu den Öffnungszeiten	GBO Begegnungsstätte im Bruno-Wiefel-Haus		0	0		0		bookcase		openbookcase.org
570	Landshut	48.54604675	12.1429402873	Ludmillastraße 15a, Landshut	Bücherschrank	feste Öffnungszeiten / siehe Kontaktlink		http://bit.ly/1meve1v	0	0		0		bookcase		openbookcase.org
571	Kürten	51.051849	7.267258	Karlheinz-Stockhausen-Platz 1, Kürten	Bücherschrank	zu den Öffnungszeiten des Rathauses			0	0		0		bookcase		openbookcase.org
572	Krumbach	48.245104	10.369117	Heinrich-Sinz-Straße 3-5, Krumbach	Schäferkarren	24 / 7			0	0		0		bookcase		openbookcase.org
573	Köln / Humboldt-Gremberg	50.930738	6.994587	Gremberger Str. 20, Köln Humboldt-Gremberg	Bücherschrank	24 / 7			0	0		0		bookcase		openbookcase.org
574	Köln / Kalk	50.938554	7.006346	Kalker Hauptstr. 210, Köln Kalk	Bücherschrank	24 / 7			0	0		0		bookcase		openbookcase.org
575	Köln / Rodenkirchen	50.8956883	6.9917708	Hauptstraße 85, Köln Rodenkirchen	Bücherschrank	zu den Öffnungszeiten des Bezirksrathauses	im Warteraum		0	0		0		bookcase		openbookcase.org
576	Konstanz	47.666521737	9.16770458221	Gartenstrasse 48, Konstanz	Bücherschrank	24 / 7	vor dem Fairkauf		0	0		0		bookcase		openbookcase.org
577	Galerie-Caffé 11-line	52.398956	13.050181	Charlottenstr. 119, 14467 Potsdam	Bücherregal	täglich 11:00-24:00 Uhr			1	0		0		bookcase		openbookcase.org
578	Jülich / Altes Rathaus / Marktplatz	50.922319	6.357916	Marktplatz 1, Jülich	Bücherschrank	24 / 7	beim Sozialamt / Altes Rathaus		0	0		0		bookcase		openbookcase.org
579	Jülich / Kuba	50.918406	6.367647	Bahnhofstr. 13, Jülich	Bücherschrank	?	Kuba / Kulturbahnhof		0	0		0		bookcase		openbookcase.org
580	Jülich / AWO	50.919607	6.355653	Marie-Juchacz-Weg 2, Jülich	Bücherschrank	?			0	0		0		bookcase		openbookcase.org
581	Holle	52.085657	10.159669	Am Thie 1, Holle	Bücherschrank	Mo, Fr. 09-12 Uhr, Di. 13:30-16 Uhr, Do. 14-18 Uhr	Im Rathaus		0	0		0		bookcase		openbookcase.org
582	Hilden	51.169277	6.936356	Dr.-Ellen-Wiederhold-Platz, Hilden	Bücherschrank	24 / 7	nähe Rathaus		0	0		0		bookcase		openbookcase.org
583	Herzkamp	51.312565	7.203703	Elberfelder Str., Herzkamp	Bücherschrank	24 / 7	auf dem Parkplatz der Gaststätte zur alten Post		0	0		0		bookcase		openbookcase.org
584	Herdecke	51.400554	7.432667		Bücherregal	?	im Rathausfoyer		0	0		0		bookcase		openbookcase.org
585	Heilbronn / Waschsalon	49.132876	9.218165	Wilhelmstraße 58/1, 74074 Heilbronn	Bücherregal	Di, Mi & Fr. 10-18 Uhr, Do. 10-20 Uhr, Sa. 9-18 Uhr	ARKUS - Waschsalon; Förderprogramm "Soziale Stadt"		0	0		0		bookcase		openbookcase.org
586	Heilbronn / VHS	49.141123	9.218085	Kirchbrunnenstraße 12, Heilbronn	Bücherschrank	Mo, Mi, Fr 9:30-13 Uhr, 14-17:30 Uhr, Do. 09:30 - 17:30 Uhr			0	0		0		bookcase		openbookcase.org
587	Bücherbaum Wiecker Hafen	54.092599	13.44994	An der Mühle/Yachtweg, Greifswald	Bücherstapel	24 / 7			0	0		0		bookcase		openbookcase.org
588	Greetsiel	53.5006	7.09392	Hohe Straße, Greetsiel	Bücherschrank	nur bei gutem Wetter	nicht ganz kostenlos, da für die Kirchenglocke gesammelt wird		0	0		0		bookcase		openbookcase.org
590	Gevelsberg	51.32197	7.338634	Großer Markt 2, Gevelsberg	Bücherschrank	24 / 7	gegenüber der Polizeiwache		0	0		0		bookcase		openbookcase.org
591	Euskirchen	50.66127	6.787582	Alter Markt, Euskirchen	rote Telefonzelle	24 / 7			0	0		0		bookcase		openbookcase.org
592	Emden / Barenburger Kulturbunker	53.380269	7.215408	Geibelstraße 30a, Emden	Bücherschrank	Di. 10-12 uhr			0	0		0		bookcase		openbookcase.org
593	Einhaus	53.713027	10.7288779	Hauptstr. 26a, Einhaus 	Telefonzelle	?			0	0		0		bookcase		openbookcase.org
594	Carolinensiel / Cliner Quelle	53.696062	7.805354	Nordseestr. 1, Carolinensiel	Bücherschrank	siehe http://j.mp/1aEtwyt			0	0		0		bookcase		openbookcase.org
595	Buxtehude	53.476985	9.701553	Stavenort, Buxtehude	Bücherschrank	24 / 7			0	0		0		bookcase		openbookcase.org
596	Bremen / Bürgerhaus Weserterrassen	53.06841	8.832184	Osterdeich 70b, Bremen	Bücherschrank	?			0	0		0		bookcase		openbookcase.org
597	Braunschweig / &#34;Dialog&#34;	52.275208	10.535274	Rebenring, Braunschweig	rote Telefonzelle	24 / 7			1	0		1		bookcase		openbookcase.org
598	Brandis	51.342549	12.605862	Hainbuchenallee 47, Brandis	Bücherschrank	24 / 7	von Fam. Werner aufgestellt, Regel 1:1 tauschen		0	0		0		bookcase		openbookcase.org
599	Hemdingen	53.762031	9.835115	Steindamm 6, Hemdingen	Bücherschrank	24 / 7	Am Sprüttenhuus, barierefrei		0	0		0		bookcase		openbookcase.org
600	Aachen / TABITAS	50.78927	6.11449	Heinrich-Hollands-Str. 6	Vitrine	24 / 7			0	0		0		bookcase		openbookcase.org
601	Oberhöchstadt	50.184033	8.540135	Platz am Dalles, Oberhöchsstadt	Stahlschrank	24 / 7			0	0		0		bookcase		openbookcase.org
602	Bad Iburg (Innogy)	52.157707	8.045696	Schloßstr. 12, Bad Iburg	Innogy Bücherschrank (BOKX)	24 / 7	gestiftet von der Innogy SE		0	0		0		bookcase	bit.ly/innogycases	openbookcase.org
604	Linnich (Innogy)	50.979689	6.269253	Rurstraße 9-11, 52441 Linnich	Innogy Bücherschrank (BOKX)	24 / 7	gestiftet von der Innogy SE; vor dem Glasmalereimuseum		0	0		0		bookcase	bit.ly/innogycases	openbookcase.org
605	Lübeck / St. Jürgen	53.866216	10.70354	Pelzerstraße / Ecke Wakenitzufer	Bücherschrank	24 / 7			0	0		0		bookcase		openbookcase.org
606	Kammerstein	49.292336	10.970125	Rathausplatz, Kammerstein	weißes Billy-Regal	24 / 7			0	0		0		bookcase		openbookcase.org
608	Oberursel (Rushmoore-Park)	50.198365	8.578109	Rushmoore-Park, Oberursel	britische Telefonzelle	24 / 7	nähe der Feldbergschule		0	0		0		bookcase		openbookcase.org
609	Rotes Regal Balingen	48.278331	8.850574	Bahnhofsplatz, Balingen	Regal	während der Öffnungszeiten der Bahnhofshalle	in der Bahnhofshalle		0	0		0		bookcase		openbookcase.org
610	Neuss / RomaNEum	51.197697	6.695574	Brückstraße 1 - 3, Neuss	Bücherregal	an Werktagen und Sonntagen zugänglich; nicht zugänglich an sonstigen Feiertagen			0	0		0		bookcase		openbookcase.org
611	Erfurt / &#34;Franz Mehlhose&#34;	50.971674	11.030786	Löberstr. 12, Erfurt	Bücherschrank aus Holz	Di.-So. 15-21 Uhr	1:1 Tausch; eingerichtet durch das Café Franz Mehlhose und Hugendubel	http://www.franz-mehlhose.de/	0	0		0		bookcase		openbookcase.org
612	Weimar - Other Music Academy	50.989223	11.324667	Ernst-Kohl-Straße 23	custom / Beton	24/7		Alan Bern – Other Music Academy	0	0		0		bookcase		openbookcase.org
613	Ebersteinburg / Baden-Baden	48.7800902937	8.26956152916	Ebersteinburgerstr. 25, Baden-Baden	Stahlschrank	24 Stunden geöffnet	Schrank wurde im Januar 2014 eingeweiht.	derzeit noch keine Adresse angegeben	0	0		0		bookcase		openbookcase.org
614	Köln-Neustadt-Süd	50.93274	6.939309	Beethovenstr. 1, 50674 Köln	Bücherschrank	Mo.-Fr. 10:00 Uhr - 17:00 Uhr	An der Infowand im Eingangsbereich, barrierefrei	http://www.aidshilfe-koeln.de/index.php?id=10	0	0		0		bookcase		openbookcase.org
616	Offener Bücherschrank Volksbankgalerie	47.4108788414	15.2712053061	Bruck an der Mur, Mittergasse 11 - 15	Offener Bücherschrank	Mo bis Sa 07.00 - 02.00 Uhr		Adelheid Drofenigg al. Mieze1965 at www.bookcrossing.com	1	0		0		bookcase		openbookcase.org
617	Kernen / Rommelshausen	48.8079127517	9.32104110718		Offener Bücherschrank - Metall	24 / 7		Bürgerverein	0	1		0		bookcase		openbookcase.org
618	REMSPARK Einkaufszentrum	48.818041	9.300549		Holzschrank	Ladenöffnungszeiten Mo - Fr 8 - 20 Uhr, Sa. 8 - 14 Uhr	mehrere Regale		0	0		0		bookcase		openbookcase.org
619	Baden-Baden / Neuweier	48.721791	8.185802	Mauerbergstr. 95, 76534 Baden-Baden	Holzregal im Innenraumbereich	während der Öffnungszeiten der Ortsverwaltung Neuweier 			0	1		0		bookcase		openbookcase.org
621	Stuttgart - OBCZ 1	48.777941	9.174362	Schloßstr. 28, 70174 Stuttgart	Holzregal im Restaurant	Restaurantöffnungszeiten Mo - Do 17 - 01, Fr 17 - 02 Sa 18 - 02 Uhr	Ziemlich kleines Regal im dunklen Bereich rechts vom Eingang des Lokals	Book-Crossing Meetup-Treffen jeden Monat	1	1		0		bookcase		openbookcase.org
622	Gaggenau / Freiolzheim Maria Hilf Kirche	48.84634	8.374688	Kirchweg	Holzregal im Kircheninneren	zu den Öffnungszeiten der Kirche	seit November 2012		0	0		0		bookcase		openbookcase.org
623	Aidlingen - Volkshochschule	48.67814	8.897268	Hauptstr. 15	Bücherschrank	Di - Do 10 - 12 und Mi 15 - 17 Uhr			0	0		0		bookcase		openbookcase.org
624	BCZ Weinstadt	48.808891	9.386197	Luitgardstr. 5, 71384 Weinstadt	Holzregal für ca. 100 Bücher im 1. Obergeschoss	täglich 8 - 18 Uhr während der Besuchszeiten	Das Regal ist nicht direkt öffentlich zugänglich. Entnahmen oder Einstellen von Büchern nur nach Absprache mit der Pflegeleitung im 1. Stock des Pflegeheimes.	BC-Mitglied RosaJo	0	0		0		bookcase		openbookcase.org
625	Bücher-Kühl-Schrank Hilchenbach	50.977261	8.054234	57271 Hilchenbach, Bernhard-Weiss-Platz 6	3 Kühlschränke umgebaut mit Glastüren	24 Stunden	Platz vor dem Viktoria Filmtheater 	Stadtbücherei Hilchenbach, Im Burgweiher 1, 57271 Hilchenbach	0	0		0		bookcase		openbookcase.org
626	Bücherschrank Hildrizhausen	48.624311	8.968561	Gartenstraße Ecke Altdorfer Straße, Hildrizhausen	Stahlschrank	24/7	-		0	0		0		bookcase		openbookcase.org
627	Karlsruhe, Volkshochschule Kaiserallee	49.0114223805	8.37566435337				Cafeteria, EG	Volkshochschule Karlsruhe	0	0		0		bookcase		openbookcase.org
628	Free books	-34.103472	18.469922	Albertyn Road, Muizenberg	not a real case, just outside on the wall	if weather permitting			0	0		0		bookcase		openbookcase.org
629	OBCZ Zuidspoor	51.921293	6.067017	Handelsdwarsstraat 1, Zevenaar	Outdoor book case	always		Moem	1	0		0		bookcase	www.bookcrossing.com/hunt/10/359/33145/749099	openbookcase.org
630	OBCZ de Panoven	51.9187623895	6.0706114769	Panovenweg 18, Zevenaar	Book basket inside the restaurant	whenever the restaurant is open (depends on season)	 		1	0		0		bookcase	www.panoven.com/	openbookcase.org
631	Borkwalde	52.253077	12.835513		umgebaute Telefonzelle	24 / 7			0	0		0		bookcase		openbookcase.org
632	Little Free Library Moerwijk	52.0512105266	4.29593861103	Jan Luykenlaan, in de buurttuin achter de Marcuskerk, Den Haag	Red kabinet	Closed in december 2014. From January 2015: Open when the neighbourhood garden is open (multiple afternoons each week).	See Twitter and/of Facebook page for news:facebook.com/LFLMoerwijk twitter.com/LFLMoerwijk       >>>> THIS BOOKCASE will be closed during december because of the possible firework damages. It will reopen on a new location. (on this map allready updated)	LFLMoerwijk	0	1		1	To prevent firework damages and to relocate to this new location.	bookcase		openbookcase.org
633	Langen (Hessen), Bahnstraße	49.9904115699	8.66644799709	Bahnstraße	Großer Bücherschrank mit zwei Schiebetüren	00:00-24:00			0	0		0		bookcase		openbookcase.org
